{"type": "FeatureCollection", "features": [{"type": "Feature", "properties": {"name": "227th St. Plgd", "address": "E 227 St/Bronx River Pkway", "Borough": "Bronx"}, "geometry": {"type": "Point", "coordinates": [-73.86422391800001, 40.890848989]}}, {"type": "Feature", "properties": {"name": "Allerton Ballfields", "address": "Allerton Ave & Moshulu Pkway", "Borough": "Bronx"}, "geometry": {"type": "Point", "coordinates": [-73.8771283938, 40.8488907878]}}, {"type": "Feature", "properties": {"name": "Arthur Ave & E 187 St", "address": "Arthur Ave & 187 St", "Borough": "Bronx"}, "geometry": {"type": "Point", "coordinates": [-73.88756499999998, 40.85557]}}, {"type": "Feature", "properties": {"name": "Barstow Mansion", "address": "895 Shore Road, Pelham Bay Park", "Borough": "Bronx"}, "geometry": {"type": "Point", "coordinates": [-73.805549, 40.871864]}}, {"type": "Feature", "properties": {"name": "Bradley Playground", "address": "2001-2017 Bronx Park E", "Borough": "Bronx"}, "geometry": {"type": "Point", "coordinates": [-73.868549, 40.851889]}}, {"type": "Feature", "properties": {"name": "Bronx Botanical Gardens", "address": "Visitors Service Center", "Borough": "Bronx"}, "geometry": {"type": "Point", "coordinates": [-73.88065899999998, 40.861526]}}, {"type": "Feature", "properties": {"name": "Bronx Botanical Gardens", "address": "Visitors Service Center", "Borough": "Bronx"}, "geometry": {"type": "Point", "coordinates": [-73.88042299999998, 40.860755]}}, {"type": "Feature", "properties": {"name": "Bronx Botanical Gardens", "address": "Visitors Service Center", "Borough": "Bronx"}, "geometry": {"type": "Point", "coordinates": [-73.88047199999998, 40.859644]}}, {"type": "Feature", "properties": {"name": "Bronx Botanical Gardens", "address": "Visitors Service Center", "Borough": "Bronx"}, "geometry": {"type": "Point", "coordinates": [-73.88017099999999, 40.862602]}}, {"type": "Feature", "properties": {"name": "Bronx County Courthouse", "address": "161 ST/Grand Concourse", "Borough": "Bronx"}, "geometry": {"type": "Point", "coordinates": [-73.922314, 40.826939]}}, {"type": "Feature", "properties": {"name": "Bronx County Courthouse", "address": "161 ST/Grand Concourse", "Borough": "Bronx"}, "geometry": {"type": "Point", "coordinates": [-73.92244699999998, 40.826627]}}, {"type": "Feature", "properties": {"name": "Bronx Park", "address": "Lydig Ave & Bronx Park E", "Borough": "Bronx"}, "geometry": {"type": "Point", "coordinates": [-73.869764, 40.854322]}}, {"type": "Feature", "properties": {"name": "Bronx Park Playground at Lydig", "address": "Lydig Ave & Bronx Park E", "Borough": "Bronx"}, "geometry": {"type": "Point", "coordinates": [-73.869863, 40.854445]}}, {"type": "Feature", "properties": {"name": "Bronx Zoo", "address": "Entrance to Cafeteria", "Borough": "Bronx"}, "geometry": {"type": "Point", "coordinates": [-73.880055, 40.849759999999996]}}, {"type": "Feature", "properties": {"name": "Bronx Zoo", "address": "Cafeteria", "Borough": "Bronx"}, "geometry": {"type": "Point", "coordinates": [-73.88003499999999, 40.850017]}}, {"type": "Feature", "properties": {"name": "Bryant Hill Community Garden", "address": "Bryant Avenue Bet. Seneca and Garrison Aves.", "Borough": "Bronx"}, "geometry": {"type": "Point", "coordinates": [-73.887069, 40.819933]}}, {"type": "Feature", "properties": {"name": "College of Mt. St. Vincent", "address": "In front of Alumnae Hall", "Borough": "Bronx"}, "geometry": {"type": "Point", "coordinates": [-73.907652, 40.911295]}}, {"type": "Feature", "properties": {"name": "College of Mt. St. Vincent", "address": "In front of Cardinal Spellman Hall", "Borough": "Bronx"}, "geometry": {"type": "Point", "coordinates": [-73.90791, 40.911235999999995]}}, {"type": "Feature", "properties": {"name": "Concrete Plant Park", "address": "Bronx River bet. Westchster Av and Bruckner Blvd", "Borough": "Bronx"}, "geometry": {"type": "Point", "coordinates": [-73.88546, 40.825217]}}, {"type": "Feature", "properties": {"name": "Crotona Park ", "address": "1700 Crotona Ave", "Borough": "Bronx"}, "geometry": {"type": "Point", "coordinates": [-73.895513, 40.840115]}}, {"type": "Feature", "properties": {"name": "Crotona Park ", "address": "1700 Crotona Ave", "Borough": "Bronx"}, "geometry": {"type": "Point", "coordinates": [-73.895652, 40.835226]}}, {"type": "Feature", "properties": {"name": "Crotona Park ", "address": "1700 Crotona Ave", "Borough": "Bronx"}, "geometry": {"type": "Point", "coordinates": [-73.892702, 40.84133]}}, {"type": "Feature", "properties": {"name": "Crotona Park ", "address": "1700 Crotona Ave", "Borough": "Bronx"}, "geometry": {"type": "Point", "coordinates": [-73.898206, 40.840876]}}, {"type": "Feature", "properties": {"name": "Crotona Park ", "address": "1700 Crotona Ave", "Borough": "Bronx"}, "geometry": {"type": "Point", "coordinates": [-73.893566, 40.838351]}}, {"type": "Feature", "properties": {"name": "Crotona Park ", "address": "1700 Crotona Ave", "Borough": "Bronx"}, "geometry": {"type": "Point", "coordinates": [-73.89805600000003, 40.841123]}}, {"type": "Feature", "properties": {"name": "E 174 St & Manor Ave", "address": "174 St & Manor Ave", "Borough": "Bronx"}, "geometry": {"type": "Point", "coordinates": [-73.877453, 40.83377]}}, {"type": "Feature", "properties": {"name": "E 176 St & Marmion Ave", "address": "176 St & Marmion Ave", "Borough": "Bronx"}, "geometry": {"type": "Point", "coordinates": [-73.888487, 40.841444]}}, {"type": "Feature", "properties": {"name": "E Gun Hill Rd & Bronxwood Ave", "address": "Gun Hill Rd & Bronxwood Ave", "Borough": "Bronx"}, "geometry": {"type": "Point", "coordinates": [-73.86052599999998, 40.875553000000004]}}, {"type": "Feature", "properties": {"name": "E Tremont Ave & Bruckner Blvd", "address": "Tremont Ave & Bruckner Blvd", "Borough": "Bronx"}, "geometry": {"type": "Point", "coordinates": [-73.82828499999998, 40.833109]}}, {"type": "Feature", "properties": {"name": "E Tremont Ave & University Ave", "address": "Tremont Ave & University Ave", "Borough": "Bronx"}, "geometry": {"type": "Point", "coordinates": [-73.915529, 40.85042]}}, {"type": "Feature", "properties": {"name": "Echo Park", "address": "315 Echo Pl", "Borough": "Bronx"}, "geometry": {"type": "Point", "coordinates": [-73.902175, 40.849292]}}, {"type": "Feature", "properties": {"name": "Edith Community Garden (830 Elton Tenants Assoc.)", "address": "836 Elton Avenue ", "Borough": "Bronx"}, "geometry": {"type": "Point", "coordinates": [-73.91266, 40.822893]}}, {"type": "Feature", "properties": {"name": "El Flamboyan", "address": "Tinton Avenue @ E. 150th Street ", "Borough": "Bronx"}, "geometry": {"type": "Point", "coordinates": [-73.905898, 40.813663]}}, {"type": "Feature", "properties": {"name": "Family Group Garden", "address": "419 East 158th Street ", "Borough": "Bronx"}, "geometry": {"type": "Point", "coordinates": [-73.914009, 40.82201]}}, {"type": "Feature", "properties": {"name": "Fordham University", "address": "Grand Concourse West & Fordham Rd", "Borough": "Bronx"}, "geometry": {"type": "Point", "coordinates": [-73.89717399999998, 40.862402]}}, {"type": "Feature", "properties": {"name": "Fordham University", "address": "Main Entrance (Kazimiroff Blvd)", "Borough": "Bronx"}, "geometry": {"type": "Point", "coordinates": [-73.881414, 40.861379]}}, {"type": "Feature", "properties": {"name": "Fordham University", "address": "Side Entrance (E Fordham Rd & 3 Ave)", "Borough": "Bronx"}, "geometry": {"type": "Point", "coordinates": [-73.89014, 40.861267]}}, {"type": "Feature", "properties": {"name": "Fordham University", "address": "Kingsbridge Rd & Fordham Rd", "Borough": "Bronx"}, "geometry": {"type": "Point", "coordinates": [-73.893726, 40.861948]}}, {"type": "Feature", "properties": {"name": "French Charley Playground", "address": "E 204 St, W/S Bronx Park", "Borough": "Bronx"}, "geometry": {"type": "Point", "coordinates": [-73.876238, 40.869996]}}, {"type": "Feature", "properties": {"name": "Hornaday Community Garden (volky Flower Garden)", "address": "851 Hornaday Avenue", "Borough": "Bronx"}, "geometry": {"type": "Point", "coordinates": [-73.88253399999998, 40.847026]}}, {"type": "Feature", "properties": {"name": "HUB 3rd Ave", "address": "3 Ave & 149 St", "Borough": "Bronx"}, "geometry": {"type": "Point", "coordinates": [-73.917594, 40.816171]}}, {"type": "Feature", "properties": {"name": "Hunts Point", "address": "Hunt's Point Ave Btwn. Spofford Ave & Bryant Ave", "Borough": "Bronx"}, "geometry": {"type": "Point", "coordinates": [-73.885886, 40.814213]}}, {"type": "Feature", "properties": {"name": "Hunt's Point", "address": "Hunt's Point Ave Btwn. Spofford Ave & Bryant Ave", "Borough": "Bronx"}, "geometry": {"type": "Point", "coordinates": [-73.885886, 40.814213]}}, {"type": "Feature", "properties": {"name": "Hunt's point Riverside Park- Plgd - Parks", "address": "Lafayette Ave & Edgewater Rd", "Borough": "Bronx"}, "geometry": {"type": "Point", "coordinates": [-73.882622, 40.81747100000001]}}, {"type": "Feature", "properties": {"name": "Isla Verde Garden", "address": "625 Wales Avenue ", "Borough": "Bronx"}, "geometry": {"type": "Point", "coordinates": [-73.90691, 40.81484]}}, {"type": "Feature", "properties": {"name": "Jardin de las Rosas", "address": "15 Buchanan Place", "Borough": "Bronx"}, "geometry": {"type": "Point", "coordinates": [-73.90485, 40.858005]}}, {"type": "Feature", "properties": {"name": "Joyce Kilmer", "address": "E 164 St Btwn. Grand Concourse & Walton Ave", "Borough": "Bronx"}, "geometry": {"type": "Point", "coordinates": [-73.921933, 40.829632]}}, {"type": "Feature", "properties": {"name": "Joyce Kilmer", "address": "E 164 St Btwn. Grand Concourse & Walton Ave", "Borough": "Bronx"}, "geometry": {"type": "Point", "coordinates": [-73.923062, 40.827502]}}, {"type": "Feature", "properties": {"name": "Kingsbridge Heights Community Center", "address": "3101 Kingsbridge Ave", "Borough": "Bronx"}, "geometry": {"type": "Point", "coordinates": [-73.90061999999998, 40.877667]}}, {"type": "Feature", "properties": {"name": "Las Casitas Communitiy Garden", "address": "1126-1140 Woodycrest Avenue ", "Borough": "Bronx"}, "geometry": {"type": "Point", "coordinates": [-73.925664, 40.835694]}}, {"type": "Feature", "properties": {"name": "Little Green Garden (3) Large lower expanse", "address": "E 160th St and Elton Ave", "Borough": "Bronx"}, "geometry": {"type": "Point", "coordinates": [-73.9128832182, 40.8229705286]}}, {"type": "Feature", "properties": {"name": "Mill Pond", "address": "Mill Pond Park", "Borough": "Bronx"}, "geometry": {"type": "Point", "coordinates": [-73.9318925429, 40.8229923969]}}, {"type": "Feature", "properties": {"name": "Mullaly", "address": "E 165 St Btwn. Jerome Ave & River Ave", "Borough": "Bronx"}, "geometry": {"type": "Point", "coordinates": [-73.923392, 40.834258]}}, {"type": "Feature", "properties": {"name": "Mullaly", "address": "E 165 St Btwn. Jerome Ave & River Ave", "Borough": "Bronx"}, "geometry": {"type": "Point", "coordinates": [-73.923947, 40.831466]}}, {"type": "Feature", "properties": {"name": "Muskrat Playground", "address": "Bronx Park", "Borough": "Bronx"}, "geometry": {"type": "Point", "coordinates": [-73.8775226739, 40.8415557191]}}, {"type": "Feature", "properties": {"name": "New Hoe Avenue Garden", "address": "E/S Hoe Ave., S/O/ Aldus Street ", "Borough": "Bronx"}, "geometry": {"type": "Point", "coordinates": [-73.890242, 40.822711]}}, {"type": "Feature", "properties": {"name": "Niles Triangle", "address": "Bronx Park", "Borough": "Bronx"}, "geometry": {"type": "Point", "coordinates": [-73.864356, 40.889428]}}, {"type": "Feature", "properties": {"name": "Noble Playground", "address": "Noble Ave Btwn. Bronx River Ave & E 177 St", "Borough": "Bronx"}, "geometry": {"type": "Point", "coordinates": [-73.872355, 40.836706]}}, {"type": "Feature", "properties": {"name": "Nursery", "address": "Van Cortlandt Park", "Borough": "Bronx"}, "geometry": {"type": "Point", "coordinates": [-73.86851899999998, 40.90208]}}, {"type": "Feature", "properties": {"name": "Olinville", "address": "Bronx Blvd & E 219 St", "Borough": "Bronx"}, "geometry": {"type": "Point", "coordinates": [-73.866996, 40.884079]}}, {"type": "Feature", "properties": {"name": "Orchard Beach picnic areas, basketball ct, Pelham playground, Nature Center, Boathouse", "address": "Orchard Beach", "Borough": "Bronx"}, "geometry": {"type": "Point", "coordinates": [-73.794774, 40.866292]}}, {"type": "Feature", "properties": {"name": "Orchard Beach picnic areas, basketball ct, Pelham playground, Nature Center, Boathouse", "address": "Orchard Beach", "Borough": "Bronx"}, "geometry": {"type": "Point", "coordinates": [-73.793396, 40.867984]}}, {"type": "Feature", "properties": {"name": "Orchard Beach picnic areas, basketball ct, Pelham playground, Nature Center, Boathouse", "address": "Orchard Beach", "Borough": "Bronx"}, "geometry": {"type": "Point", "coordinates": [-73.792261, 40.868802]}}, {"type": "Feature", "properties": {"name": "Orchard Beach picnic areas, basketball ct, Pelham playground, Nature Center, Boathouse", "address": "Orchard Beach", "Borough": "Bronx"}, "geometry": {"type": "Point", "coordinates": [-73.792558, 40.869068]}}, {"type": "Feature", "properties": {"name": "Orchard Beach picnic areas, basketball ct, Pelham playground, Nature Center, Boathouse", "address": "Orchard Beach", "Borough": "Bronx"}, "geometry": {"type": "Point", "coordinates": [-73.79732299999998, 40.872275]}}, {"type": "Feature", "properties": {"name": "Owen Dolan", "address": "2551 Westchester Ave", "Borough": "Bronx"}, "geometry": {"type": "Point", "coordinates": [-73.842668, 40.840504]}}, {"type": "Feature", "properties": {"name": "Owen Dolan", "address": "2551 Westchester Ave", "Borough": "Bronx"}, "geometry": {"type": "Point", "coordinates": [-73.843231, 40.840626]}}, {"type": "Feature", "properties": {"name": "P.O. Serrano", "address": "Olmstead Ave Btwn Turnbull Ave & Lafayette Ave ", "Borough": "Bronx"}, "geometry": {"type": "Point", "coordinates": [-73.85076600000002, 40.82366]}}, {"type": "Feature", "properties": {"name": "Pearly Gates", "address": "St. Peter's Ave at Tratman Ave ", "Borough": "Bronx"}, "geometry": {"type": "Point", "coordinates": [-73.845791, 40.838797]}}, {"type": "Feature", "properties": {"name": "Pelham Bay  Ball field, north picnic area", "address": "Pelham Bay Park", "Borough": "Bronx"}, "geometry": {"type": "Point", "coordinates": [-73.824697, 40.851723]}}, {"type": "Feature", "properties": {"name": "Pelham Bay picnic, running track", "address": "Pelham Bay Park", "Borough": "Bronx"}, "geometry": {"type": "Point", "coordinates": [-73.82295400000002, 40.849069]}}, {"type": "Feature", "properties": {"name": "Quarry Ballfield- Parks", "address": "E 181 St, oak Tree Pl Btwn. Quarry Rd & Hughes Ave", "Borough": "Bronx"}, "geometry": {"type": "Point", "coordinates": [-73.88991999999998, 40.850274]}}, {"type": "Feature", "properties": {"name": "River Garden", "address": "1086 East 180th Street", "Borough": "Bronx"}, "geometry": {"type": "Point", "coordinates": [-73.876389, 40.841884]}}, {"type": "Feature", "properties": {"name": "River Park", "address": "E 180 St & Boston Rd", "Borough": "Bronx"}, "geometry": {"type": "Point", "coordinates": [-73.87769399999998, 40.842795]}}, {"type": "Feature", "properties": {"name": "Riverdale Neighborhood House", "address": "5521 Mosholu Ave", "Borough": "Bronx"}, "geometry": {"type": "Point", "coordinates": [-73.90361199999998, 40.903281]}}, {"type": "Feature", "properties": {"name": "Rosehill Park- Parks", "address": "Webster Ave & E Fordham Rd", "Borough": "Bronx"}, "geometry": {"type": "Point", "coordinates": [-73.890736, 40.861953]}}, {"type": "Feature", "properties": {"name": "Rosewood- Parks", "address": "Bronx River Pkwy & Rosewood St", "Borough": "Bronx"}, "geometry": {"type": "Point", "coordinates": [-73.87052, 40.873199]}}, {"type": "Feature", "properties": {"name": "Sachkera Plgd \u2013 Parks", "address": "W Gunhill Rd & Knox Pl ", "Borough": "Bronx"}, "geometry": {"type": "Point", "coordinates": [-73.881691, 40.883881]}}, {"type": "Feature", "properties": {"name": "Seton Falls Park", "address": "E 223 St & De Reimer Ave", "Borough": "Bronx"}, "geometry": {"type": "Point", "coordinates": [-73.840908, 40.888353]}}, {"type": "Feature", "properties": {"name": "Seton Falls Park", "address": "3800 Baychester Ave", "Borough": "Bronx"}, "geometry": {"type": "Point", "coordinates": [-73.840474, 40.885219]}}, {"type": "Feature", "properties": {"name": "Skate Park at Allerton", "address": "Bronx Park East Btwn Britton St & Allerton Ave ", "Borough": "Bronx"}, "geometry": {"type": "Point", "coordinates": [-73.850613, 40.865657]}}, {"type": "Feature", "properties": {"name": "Skyview Shopping Plaza", "address": "Skyview Shopping Plaza (Riverdale Ave & 259 St)", "Borough": "Bronx"}, "geometry": {"type": "Point", "coordinates": [-73.904143, 40.906878000000006]}}, {"type": "Feature", "properties": {"name": "Soundview \u2013 Parks", "address": "Lafayette Ave Btwn Colgate Ave & Boynton Ave ", "Borough": "Bronx"}, "geometry": {"type": "Point", "coordinates": [-73.878003, 40.819113]}}, {"type": "Feature", "properties": {"name": "Soundview \u2013 Parks", "address": "Metcalf Ave Btwn Lafayette Ave & Seward Ave ", "Borough": "Bronx"}, "geometry": {"type": "Point", "coordinates": [-73.870418, 40.819274]}}, {"type": "Feature", "properties": {"name": "Soundview \u2013 Parks", "address": "Metcalf Ave Btwn Seward Ave & Randall Ave", "Borough": "Bronx"}, "geometry": {"type": "Point", "coordinates": [-73.870322, 40.817335]}}, {"type": "Feature", "properties": {"name": "Soundview \u2013 Parks", "address": "Soundview Park", "Borough": "Bronx"}, "geometry": {"type": "Point", "coordinates": [-73.872564, 40.816505]}}, {"type": "Feature", "properties": {"name": "Southern Blvd & E 173 St", "address": "Southern Blvd & 173 St", "Borough": "Bronx"}, "geometry": {"type": "Point", "coordinates": [-73.88877599999998, 40.835694000000004]}}, {"type": "Feature", "properties": {"name": "Southwest Plgd \u2013 Parks", "address": "Van Cortlandt Park", "Borough": "Bronx"}, "geometry": {"type": "Point", "coordinates": [-73.898453, 40.886538]}}, {"type": "Feature", "properties": {"name": "Spuyton Duyvil plgd", "address": "Seton Park", "Borough": "Bronx"}, "geometry": {"type": "Point", "coordinates": [-73.916308, 40.887313]}}, {"type": "Feature", "properties": {"name": "St. James ", "address": "Jerome Ave", "Borough": "Bronx"}, "geometry": {"type": "Point", "coordinates": [-73.89857099999998, 40.865469]}}, {"type": "Feature", "properties": {"name": "St. James ", "address": "Jerome Ave", "Borough": "Bronx"}, "geometry": {"type": "Point", "coordinates": [-73.89925699999998, 40.864779]}}, {"type": "Feature", "properties": {"name": "St. James ", "address": "E 193 St", "Borough": "Bronx"}, "geometry": {"type": "Point", "coordinates": [-73.896967, 40.866089]}}, {"type": "Feature", "properties": {"name": "St. Mary's ", "address": "St. Anns Ave & E 145 St", "Borough": "Bronx"}, "geometry": {"type": "Point", "coordinates": [-73.914339, 40.811712]}}, {"type": "Feature", "properties": {"name": "St. Mary's ", "address": "St. Anns Ave & E 145 St", "Borough": "Bronx"}, "geometry": {"type": "Point", "coordinates": [-73.914342, 40.811588]}}, {"type": "Feature", "properties": {"name": "Sunflower Garden/Girasol", "address": "639 E. 137th Street", "Borough": "Bronx"}, "geometry": {"type": "Point", "coordinates": [-73.9153321204, 40.8053160148]}}, {"type": "Feature", "properties": {"name": "Van Cortlandt  ballfield, tennis and picnic", "address": "Broadway & Putnam Trail", "Borough": "Bronx"}, "geometry": {"type": "Point", "coordinates": [-73.899006, 40.887317]}}, {"type": "Feature", "properties": {"name": "Van Cortlandt  ballfield, tennis and picnic", "address": "Broadway & Van Cortlandt Park 242 St", "Borough": "Bronx"}, "geometry": {"type": "Point", "coordinates": [-73.898324, 40.888933]}}, {"type": "Feature", "properties": {"name": "Van Cortlandt  ballfield, tennis and picnic", "address": "Van Cortlandt Park", "Borough": "Bronx"}, "geometry": {"type": "Point", "coordinates": [-73.89665500000002, 40.888224]}}, {"type": "Feature", "properties": {"name": "Van Cortlandt Park ", "address": "Van Cortlandt Park", "Borough": "Bronx"}, "geometry": {"type": "Point", "coordinates": [-73.896375, 40.890172]}}, {"type": "Feature", "properties": {"name": "Van Cortlandt Stadium", "address": "Van Cortlandt Park", "Borough": "Bronx"}, "geometry": {"type": "Point", "coordinates": [-73.897777, 40.888255]}}, {"type": "Feature", "properties": {"name": "Van Cortlandt Stadium", "address": "Van Cortlandt Park", "Borough": "Bronx"}, "geometry": {"type": "Point", "coordinates": [-73.892278, 40.889096]}}, {"type": "Feature", "properties": {"name": "Virginia Park", "address": "Cross Bronx Expwy Service Rd", "Borough": "Bronx"}, "geometry": {"type": "Point", "coordinates": [-73.86232, 40.833505]}}, {"type": "Feature", "properties": {"name": "Vogue Community Garden", "address": "431 E. 156th Street", "Borough": "Bronx"}, "geometry": {"type": "Point", "coordinates": [-73.91403138439999, 40.820570878299996]}}, {"type": "Feature", "properties": {"name": "Waring Plgd", "address": "Waring Ave, Bronx Park E", "Borough": "Bronx"}, "geometry": {"type": "Point", "coordinates": [-73.871488, 40.860641]}}, {"type": "Feature", "properties": {"name": "Watson & Gleason", "address": "Noble Ave Btwn Watson Ave & Gleason Ave", "Borough": "Bronx"}, "geometry": {"type": "Point", "coordinates": [-73.869326, 40.828933]}}, {"type": "Feature", "properties": {"name": "West Bronx Rec. Ctr", "address": "1527 Jesup Ave", "Borough": "Bronx"}, "geometry": {"type": "Point", "coordinates": [-73.918886, 40.844147]}}, {"type": "Feature", "properties": {"name": "Woodlawn Tennis", "address": "Van Cortlandt Park", "Borough": "Bronx"}, "geometry": {"type": "Point", "coordinates": [-73.87943, 40.895803]}}, {"type": "Feature", "properties": {"name": "A Better Community Garden", "address": "762-764 Herkimer Place/13-21 Hunterfly", "Borough": "Brooklyn"}, "geometry": {"type": "Point", "coordinates": [-73.92817099999998, 40.677973]}}, {"type": "Feature", "properties": {"name": "Asser Levy", "address": "Seaside Park", "Borough": "Brooklyn"}, "geometry": {"type": "Point", "coordinates": [-73.971342, 40.57519]}}, {"type": "Feature", "properties": {"name": "Asser Levy", "address": "Seaside Park", "Borough": "Brooklyn"}, "geometry": {"type": "Point", "coordinates": [-73.971889, 40.575239]}}, {"type": "Feature", "properties": {"name": "Bay Ridge", "address": "5 Ave & Bay Ridge Pkwy", "Borough": "Brooklyn"}, "geometry": {"type": "Point", "coordinates": [-74.022532, 40.629573]}}, {"type": "Feature", "properties": {"name": "Bensonhurst", "address": "Bensohurst Park", "Borough": "Brooklyn"}, "geometry": {"type": "Point", "coordinates": [-73.9994, 40.596833]}}, {"type": "Feature", "properties": {"name": "Boerum", "address": "Boerum Park", "Borough": "Brooklyn"}, "geometry": {"type": "Point", "coordinates": [-73.990234, 40.68463]}}, {"type": "Feature", "properties": {"name": "Brooklyn War Memorial", "address": "Brooklyn War Memorial", "Borough": "Brooklyn"}, "geometry": {"type": "Point", "coordinates": [-73.990675, 40.696536]}}, {"type": "Feature", "properties": {"name": "Brower", "address": "Park Pl Btwn Brooklyn Ave & Kingston Ave", "Borough": "Brooklyn"}, "geometry": {"type": "Point", "coordinates": [-73.943717, 40.673811]}}, {"type": "Feature", "properties": {"name": "Brownsville Rec Ctr", "address": "1555 Linden Blvd", "Borough": "Brooklyn"}, "geometry": {"type": "Point", "coordinates": [-73.90247, 40.656762]}}, {"type": "Feature", "properties": {"name": "Bushwick Inlet Field", "address": "Bushwick Inlet Park", "Borough": "Brooklyn"}, "geometry": {"type": "Point", "coordinates": [-73.961527, 40.722315]}}, {"type": "Feature", "properties": {"name": "Cadman Plaza", "address": "Korean War Veterans Plaze", "Borough": "Brooklyn"}, "geometry": {"type": "Point", "coordinates": [-73.990218, 40.695873]}}, {"type": "Feature", "properties": {"name": "Cadman Plaza", "address": "Brooklyn War Memorial", "Borough": "Brooklyn"}, "geometry": {"type": "Point", "coordinates": [-73.990337, 40.697327]}}, {"type": "Feature", "properties": {"name": "Carroll Park", "address": "President St", "Borough": "Brooklyn"}, "geometry": {"type": "Point", "coordinates": [-73.995212, 40.681307]}}, {"type": "Feature", "properties": {"name": "Carroll Park", "address": "Carroll St", "Borough": "Brooklyn"}, "geometry": {"type": "Point", "coordinates": [-73.99548100000001, 40.680946]}}, {"type": "Feature", "properties": {"name": "City Line Park", "address": "Fountain Ave", "Borough": "Brooklyn"}, "geometry": {"type": "Point", "coordinates": [-73.876233, 40.679442]}}, {"type": "Feature", "properties": {"name": "Cobble hill park", "address": "Clinton St Btwn Congress St & Verandah Pl", "Borough": "Brooklyn"}, "geometry": {"type": "Point", "coordinates": [-73.99613599999999, 40.68829]}}, {"type": "Feature", "properties": {"name": "Columbus Park", "address": "Columbus Park", "Borough": "Brooklyn"}, "geometry": {"type": "Point", "coordinates": [-73.989791, 40.694143]}}, {"type": "Feature", "properties": {"name": "Commodore Berry", "address": "Commodore Berry", "Borough": "Brooklyn"}, "geometry": {"type": "Point", "coordinates": [-73.97865300000002, 40.697793]}}, {"type": "Feature", "properties": {"name": "Cuyler Gore Park", "address": "Greene Ave", "Borough": "Brooklyn"}, "geometry": {"type": "Point", "coordinates": [-73.972638, 40.685861]}}, {"type": "Feature", "properties": {"name": "David Marcus Plgd", "address": "Avenue P Btwn 4 St & 5 St", "Borough": "Brooklyn"}, "geometry": {"type": "Point", "coordinates": [-73.96951999999997, 40.610033]}}, {"type": "Feature", "properties": {"name": "Dumbo Brooklyn Heights", "address": "Front St & Washington St", "Borough": "Brooklyn "}, "geometry": {"type": "Point", "coordinates": [-73.989752, 40.702573]}}, {"type": "Feature", "properties": {"name": "Dumbo Brooklyn Heights", "address": "Front St & Main St", "Borough": "Brooklyn "}, "geometry": {"type": "Point", "coordinates": [-73.990641, 40.702631]}}, {"type": "Feature", "properties": {"name": "Dumbo Brooklyn Heights", "address": "Front St & Jay St", "Borough": "Brooklyn "}, "geometry": {"type": "Point", "coordinates": [-73.986553, 40.70238]}}, {"type": "Feature", "properties": {"name": "Dumbo Brooklyn Heights", "address": "Church Ave & Flatbush Ave", "Borough": "Brooklyn"}, "geometry": {"type": "Point", "coordinates": [-73.958798, 40.650209999999994]}}, {"type": "Feature", "properties": {"name": "FAB", "address": "Fulton & Washington Ave ", "Borough": "Brooklyn "}, "geometry": {"type": "Point", "coordinates": [-73.964596, 40.68293]}}, {"type": "Feature", "properties": {"name": "FAB", "address": "Fulton St & Lafayette/Greene/S Oxford", "Borough": "Brooklyn"}, "geometry": {"type": "Point", "coordinates": [-73.97623799999998, 40.687093]}}, {"type": "Feature", "properties": {"name": "FAB", "address": "Putnam Triangle", "Borough": "Brooklyn"}, "geometry": {"type": "Point", "coordinates": [-73.96197499999998, 40.682556]}}, {"type": "Feature", "properties": {"name": "FAB ", "address": "Fulton & Lafayette ", "Borough": "Brooklyn"}, "geometry": {"type": "Point", "coordinates": [-73.976557, 40.687072]}}, {"type": "Feature", "properties": {"name": "FAB ", "address": "Fulton & Clinton Ave ", "Borough": "Brooklyn "}, "geometry": {"type": "Point", "coordinates": [-73.966797, 40.683557]}}, {"type": "Feature", "properties": {"name": "FAB ", "address": "Lafayette & South Portland Ave", "Borough": "Brooklyn"}, "geometry": {"type": "Point", "coordinates": [-73.974621, 40.687208]}}, {"type": "Feature", "properties": {"name": "Fort Greene ", "address": "Washington Park & Dekalb Ave", "Borough": "Brooklyn"}, "geometry": {"type": "Point", "coordinates": [-73.9732, 40.689818]}}, {"type": "Feature", "properties": {"name": "Fort Hamilton Sr. Center", "address": "9941 Fort Hamilton Pkwy", "Borough": "Brooklyn"}, "geometry": {"type": "Point", "coordinates": [-74.030067, 40.613322]}}, {"type": "Feature", "properties": {"name": "Good Shepheard's Community Group", "address": "555-557 Shepherd Ave.", "Borough": "Brooklyn"}, "geometry": {"type": "Point", "coordinates": [-73.8796755721, 40.6707327095]}}, {"type": "Feature", "properties": {"name": "Gregory's Garden (P.S. 158 Memorial Garden", "address": "444,448 Warwich Avenue", "Borough": "Brooklyn"}, "geometry": {"type": "Point", "coordinates": [-73.88574200000002, 40.672659]}}, {"type": "Feature", "properties": {"name": "Hands  & Hearts(New Lots Urban Farm)", "address": "New Lots Ave at Alabama Avenue", "Borough": "Brooklyn"}, "geometry": {"type": "Point", "coordinates": [-73.895627, 40.66101]}}, {"type": "Feature", "properties": {"name": "Harry Chapin Plgd", "address": "Hillside Park", "Borough": "Brooklyn"}, "geometry": {"type": "Point", "coordinates": [-73.99514599999998, 40.70078400000001]}}, {"type": "Feature", "properties": {"name": "Herbal Garden", "address": "582-590 Glenmore Ave.", "Borough": "Brooklyn"}, "geometry": {"type": "Point", "coordinates": [-73.888573, 40.674221]}}, {"type": "Feature", "properties": {"name": "JJ Byrne", "address": "4 St Btwn 4 Ave & 5 Ave", "Borough": "Brooklyn"}, "geometry": {"type": "Point", "coordinates": [-73.984796, 40.67269]}}, {"type": "Feature", "properties": {"name": "JJ Byrne", "address": "4 St Btwn 4 Ave & 5 Ave", "Borough": "Brooklyn"}, "geometry": {"type": "Point", "coordinates": [-73.984332, 40.673262]}}, {"type": "Feature", "properties": {"name": "Kaiser ", "address": "Neptune Ave", "Borough": "Brooklyn"}, "geometry": {"type": "Point", "coordinates": [-73.994834, 40.578225]}}, {"type": "Feature", "properties": {"name": "Kelly", "address": "Kelly Memorial Playground", "Borough": "Brooklyn"}, "geometry": {"type": "Point", "coordinates": [-73.957375, 40.603519]}}, {"type": "Feature", "properties": {"name": "Korean War Vet ", "address": "Cadman Plaza", "Borough": "Brooklyn"}, "geometry": {"type": "Point", "coordinates": [-73.990256, 40.695719]}}, {"type": "Feature", "properties": {"name": "Manhattan Beach +BBQ", "address": "Oriental Blvd", "Borough": "Brooklyn"}, "geometry": {"type": "Point", "coordinates": [-73.944616, 40.577672]}}, {"type": "Feature", "properties": {"name": "Manhattan Beach +BBQ", "address": "Oriental Blvd", "Borough": "Brooklyn"}, "geometry": {"type": "Point", "coordinates": [-73.946587, 40.577211]}}, {"type": "Feature", "properties": {"name": "Marine Park ", "address": "Marine Park", "Borough": "Brooklyn"}, "geometry": {"type": "Point", "coordinates": [-73.93070299999998, 40.604085]}}, {"type": "Feature", "properties": {"name": "McCarren Park ", "address": "Bedford Ave ", "Borough": "Brooklyn"}, "geometry": {"type": "Point", "coordinates": [-73.95366800000002, 40.721612]}}, {"type": "Feature", "properties": {"name": "McCarren Park ", "address": "Bedford Ave ", "Borough": "Brooklyn"}, "geometry": {"type": "Point", "coordinates": [-73.954114, 40.721535]}}, {"type": "Feature", "properties": {"name": "McCarren Park ", "address": "Driggs Ave", "Borough": "Brooklyn"}, "geometry": {"type": "Point", "coordinates": [-73.952488, 40.720622]}}, {"type": "Feature", "properties": {"name": "McCarren Park ", "address": "Driggs Ave & Lorimer St", "Borough": "Brooklyn"}, "geometry": {"type": "Point", "coordinates": [-73.950305, 40.721653]}}, {"type": "Feature", "properties": {"name": "McCarren Park ", "address": "McCarren Park", "Borough": "Brooklyn"}, "geometry": {"type": "Point", "coordinates": [-73.952215, 40.719973]}}, {"type": "Feature", "properties": {"name": "McCarren Park ", "address": "Bedford Ave ", "Borough": "Brooklyn"}, "geometry": {"type": "Point", "coordinates": [-73.953298, 40.72173]}}, {"type": "Feature", "properties": {"name": "McCarren Park ", "address": "N 12 St", "Borough": "Brooklyn"}, "geometry": {"type": "Point", "coordinates": [-73.955512, 40.721075]}}, {"type": "Feature", "properties": {"name": "McCarren Park ", "address": "Berry St", "Borough": "Brooklyn"}, "geometry": {"type": "Point", "coordinates": [-73.955283, 40.721933]}}, {"type": "Feature", "properties": {"name": "McGorlick Park", "address": "McGorlick Park", "Borough": "Brooklyn"}, "geometry": {"type": "Point", "coordinates": [-73.943326, 40.724446]}}, {"type": "Feature", "properties": {"name": "Metropolitan Rec Ctr ", "address": "261 Bedford Ave", "Borough": "Brooklyn"}, "geometry": {"type": "Point", "coordinates": [-73.960546, 40.715086]}}, {"type": "Feature", "properties": {"name": "Metrotech", "address": "Willoughby St & Bridge St", "Borough": "Brooklyn"}, "geometry": {"type": "Point", "coordinates": [-73.985247, 40.692165]}}, {"type": "Feature", "properties": {"name": "Mt. Prospect plgd", "address": "Mt. Prospect Park", "Borough": "Brooklyn"}, "geometry": {"type": "Point", "coordinates": [-73.96598, 40.67207]}}, {"type": "Feature", "properties": {"name": "Myrtle Ave BID", "address": "Myrtle Ave & Ashland Pl", "Borough": "Brooklyn"}, "geometry": {"type": "Point", "coordinates": [-73.979168, 40.693473]}}, {"type": "Feature", "properties": {"name": "Myrtle Ave BID", "address": "Myrtle Ave & Adelphi St", "Borough": "Brooklyn"}, "geometry": {"type": "Point", "coordinates": [-73.97188699999998, 40.693222]}}, {"type": "Feature", "properties": {"name": "Myrtle Ave BID", "address": "Myrtle Ave & Clinton Ave", "Borough": "Brooklyn"}, "geometry": {"type": "Point", "coordinates": [-73.96879, 40.693127000000004]}}, {"type": "Feature", "properties": {"name": "Myrtle Ave BID", "address": "Myrtle Ave & Hall St", "Borough": "Brooklyn"}, "geometry": {"type": "Point", "coordinates": [-73.965908, 40.693456]}}, {"type": "Feature", "properties": {"name": "N. 5th St. pier", "address": "N. 5th St. pier", "Borough": "Brooklyn"}, "geometry": {"type": "Point", "coordinates": [-73.965524, 40.72062800000001]}}, {"type": "Feature", "properties": {"name": "New Vision Garden", "address": "590-594 Schenck Avenue", "Borough": "Brooklyn"}, "geometry": {"type": "Point", "coordinates": [-73.88717199999998, 40.6659]}}, {"type": "Feature", "properties": {"name": "Owl's Head", "address": "Owl's Head", "Borough": "Brooklyn"}, "geometry": {"type": "Point", "coordinates": [-74.031909, 40.639285]}}, {"type": "Feature", "properties": {"name": "Palato plgd", "address": "Manhattan Beach Park", "Borough": "Brooklyn"}, "geometry": {"type": "Point", "coordinates": [-73.946325, 40.577492]}}, {"type": "Feature", "properties": {"name": "Park Slope", "address": "7 Ave & 6 St", "Borough": "Brooklyn"}, "geometry": {"type": "Point", "coordinates": [-73.98014399999998, 40.668797]}}, {"type": "Feature", "properties": {"name": "Park Slope Playground ", "address": "Berkeley Lincoln Playground ", "Borough": "Brooklyn"}, "geometry": {"type": "Point", "coordinates": [-73.978903, 40.676639]}}, {"type": "Feature", "properties": {"name": "Pierrepont Park", "address": "Pierrepon St", "Borough": "Brooklyn"}, "geometry": {"type": "Point", "coordinates": [-73.99734000000002, 40.696389]}}, {"type": "Feature", "properties": {"name": "Prospect Park ", "address": "Prospect Park West", "Borough": "Brooklyn"}, "geometry": {"type": "Point", "coordinates": [-73.97666600000002, 40.664608]}}, {"type": "Feature", "properties": {"name": "Prospect Park ", "address": "Prospect Park West", "Borough": "Brooklyn"}, "geometry": {"type": "Point", "coordinates": [-73.97959300000002, 40.66132]}}, {"type": "Feature", "properties": {"name": "Prospect Park ", "address": "Ocean Ave", "Borough": "Brooklyn"}, "geometry": {"type": "Point", "coordinates": [-73.963187, 40.66047800000001]}}, {"type": "Feature", "properties": {"name": "Prospect Park ", "address": "Ocean Ave", "Borough": "Brooklyn"}, "geometry": {"type": "Point", "coordinates": [-73.962214, 40.655183]}}, {"type": "Feature", "properties": {"name": "Red Gate Garden", "address": "604 Marcy Avenue", "Borough": "Brooklyn"}, "geometry": {"type": "Point", "coordinates": [-73.948972, 40.693761]}}, {"type": "Feature", "properties": {"name": "Red Hook Park", "address": "Red Hook Park", "Borough": "Brooklyn"}, "geometry": {"type": "Point", "coordinates": [-74.008353, 40.67726500000001]}}, {"type": "Feature", "properties": {"name": "Salt marsh", "address": "3301 Avenue U", "Borough": "Brooklyn"}, "geometry": {"type": "Point", "coordinates": [-73.930741, 40.604374]}}, {"type": "Feature", "properties": {"name": "Shore Road Plgd", "address": "Shore Rd Park", "Borough": "Brooklyn"}, "geometry": {"type": "Point", "coordinates": [-74.040033, 40.617506]}}, {"type": "Feature", "properties": {"name": "South Oxport ", "address": "Oxport Playground", "Borough": "Brooklyn"}, "geometry": {"type": "Point", "coordinates": [-73.976199, 40.697746]}}, {"type": "Feature", "properties": {"name": "Squibb Park", "address": "Btwn Furman St & Columbia Heights", "Borough": "Brooklyn"}, "geometry": {"type": "Point", "coordinates": [-73.995307, 40.701079]}}, {"type": "Feature", "properties": {"name": "St. John Cantius", "address": "476-484 New Jersey Avenue", "Borough": "Brooklyn"}, "geometry": {"type": "Point", "coordinates": [-73.89384, 40.667491]}}, {"type": "Feature", "properties": {"name": "St. John's ", "address": "St. John's Park", "Borough": "Brooklyn"}, "geometry": {"type": "Point", "coordinates": [-73.934855, 40.673754]}}, {"type": "Feature", "properties": {"name": "St. Nicholas-Olive Street Garden", "address": "21-25 Olive Street ", "Borough": "Brooklyn"}, "geometry": {"type": "Point", "coordinates": [-73.938974, 40.713316]}}, {"type": "Feature", "properties": {"name": "Starret City", "address": "1344 Pennsylvania Avenue", "Borough": "Brooklyn"}, "geometry": {"type": "Point", "coordinates": [-73.884372, 40.650143]}}, {"type": "Feature", "properties": {"name": "Sternberg Park", "address": "Lorimer St", "Borough": "Brooklyn"}, "geometry": {"type": "Point", "coordinates": [-73.948025, 40.706315]}}, {"type": "Feature", "properties": {"name": "Sternberg Park", "address": "Boerum St", "Borough": "Brooklyn"}, "geometry": {"type": "Point", "coordinates": [-73.947172, 40.705616]}}, {"type": "Feature", "properties": {"name": "Sunset Park", "address": "5 Ave & 44 St", "Borough": "Brooklyn"}, "geometry": {"type": "Point", "coordinates": [-74.006771, 40.648468]}}, {"type": "Feature", "properties": {"name": "Sunset Park", "address": "5 Ave & 44 St", "Borough": "Brooklyn"}, "geometry": {"type": "Point", "coordinates": [-74.006674, 40.64848]}}, {"type": "Feature", "properties": {"name": "Ten Eyck Houses", "address": "15-17 Ten Eyck Street", "Borough": "Brooklyn"}, "geometry": {"type": "Point", "coordinates": [-73.95016600000002, 40.709648]}}, {"type": "Feature", "properties": {"name": "Triple R/Relaxation, Reflection, Revenue (Victoria Garden)", "address": "613 Hendrix Street ", "Borough": "Brooklyn"}, "geometry": {"type": "Point", "coordinates": [-73.887691, 40.666548]}}, {"type": "Feature", "properties": {"name": "UCC (United Community Centers) Youth Farm/East New York Farms", "address": "613 Schenck Avenue ", "Borough": "Brooklyn"}, "geometry": {"type": "Point", "coordinates": [-73.886769, 40.665324]}}, {"type": "Feature", "properties": {"name": "Underhill Playground", "address": "Underhill Ave & Prospect Pl", "Borough": "Brooklyn"}, "geometry": {"type": "Point", "coordinates": [-73.965902, 40.676766]}}, {"type": "Feature", "properties": {"name": "Underwood Playground", "address": "Underwood Park", "Borough": "Brooklyn"}, "geometry": {"type": "Point", "coordinates": [-73.966559, 40.688204]}}, {"type": "Feature", "properties": {"name": "Upon the Rock", "address": "2556 Pitkin Avenue.", "Borough": "Brooklyn"}, "geometry": {"type": "Point", "coordinates": [-73.87786700000002, 40.674329]}}, {"type": "Feature", "properties": {"name": "Vernon (Throop Avenue Block Assoc.)", "address": "253 Throop Avenue", "Borough": "Brooklyn"}, "geometry": {"type": "Point", "coordinates": [-73.943264, 40.695221000000004]}}, {"type": "Feature", "properties": {"name": "Welcome Home", "address": "681 Halsey Street", "Borough": "Brooklyn"}, "geometry": {"type": "Point", "coordinates": [-73.92522199999998, 40.684658]}}, {"type": "Feature", "properties": {"name": "6BC Botanical Garden", "address": "624-628 E. 6th Street ", "Borough": "Manhattan"}, "geometry": {"type": "Point", "coordinates": [-73.980677, 40.723831]}}, {"type": "Feature", "properties": {"name": "1 Centre Street", "address": "1 Centre Street", "Borough": "Manhattan"}, "geometry": {"type": "Point", "coordinates": [-74.005701, 40.712187]}}, {"type": "Feature", "properties": {"name": "100 Centre St", "address": "100 Centre St", "Borough": "Manhattan"}, "geometry": {"type": "Point", "coordinates": [-74.000488, 40.715827000000004]}}, {"type": "Feature", "properties": {"name": "100 Centre Street ", "address": "100 Centre Street (South Entrance)", "Borough": "Manhattan"}, "geometry": {"type": "Point", "coordinates": [-74.00144799999998, 40.715923]}}, {"type": "Feature", "properties": {"name": "100 Gold Street", "address": "100 Gold Street", "Borough": "Manhattan"}, "geometry": {"type": "Point", "coordinates": [-74.003755, 40.71045]}}, {"type": "Feature", "properties": {"name": "111 Centre St", "address": "111 Centre St", "Borough": "Manhattan"}, "geometry": {"type": "Point", "coordinates": [-74.00135899999998, 40.716396]}}, {"type": "Feature", "properties": {"name": "115 Chrystie St", "address": "115 Chrystie St (Outside Main Entrance)", "Borough": "Manhattan"}, "geometry": {"type": "Point", "coordinates": [-73.993763, 40.718605]}}, {"type": "Feature", "properties": {"name": "125 St. BID", "address": "125 St & Lenox Ave", "Borough": "Manhattan"}, "geometry": {"type": "Point", "coordinates": [-73.945623, 40.807945000000004]}}, {"type": "Feature", "properties": {"name": "137 Centre Street ", "address": "137 Centre St (Centre St & White St)", "Borough": "Manhattan"}, "geometry": {"type": "Point", "coordinates": [-74.000816, 40.716941]}}, {"type": "Feature", "properties": {"name": "2 Lafayette St ", "address": "2 Lafayette St (Lafayette St & Reade St)", "Borough": "Manhattan"}, "geometry": {"type": "Point", "coordinates": [-74.003619, 40.713608]}}, {"type": "Feature", "properties": {"name": "22 Reade St", "address": "22 Reade St (Reade St & Elk St)", "Borough": "Manhattan"}, "geometry": {"type": "Point", "coordinates": [-74.00447199999999, 40.714023]}}, {"type": "Feature", "properties": {"name": "280 Broadway", "address": "Broadway Btwn Reade St & Chambers St", "Borough": "Manhattan"}, "geometry": {"type": "Point", "coordinates": [-74.00613099999998, 40.714399]}}, {"type": "Feature", "properties": {"name": "346 Broadway", "address": "346 Broadway", "Borough": "Manhattan"}, "geometry": {"type": "Point", "coordinates": [-74.00418499999999, 40.716827]}}, {"type": "Feature", "properties": {"name": "34th St", "address": "34 St & 7 Ave", "Borough": "Manhattan"}, "geometry": {"type": "Point", "coordinates": [-73.990843, 40.750901]}}, {"type": "Feature", "properties": {"name": "49-51 Chambers Street ", "address": "49-51 Chambers Street (Outside Main Entrance)", "Borough": "Manhattan"}, "geometry": {"type": "Point", "coordinates": [-74.00551299999998, 40.71368]}}, {"type": "Feature", "properties": {"name": "60 Lafayette St", "address": "60 Lafayette St (Lafayette & Leonard)", "Borough": "Manhattan"}, "geometry": {"type": "Point", "coordinates": [-74.002555, 40.716158]}}, {"type": "Feature", "properties": {"name": "60 Lafayette St", "address": "60 Lafayette St", "Borough": "Manhattan"}, "geometry": {"type": "Point", "coordinates": [-74.00246699999998, 40.716458]}}, {"type": "Feature", "properties": {"name": "80 Centre St", "address": "80 Centre St", "Borough": "Manhattan"}, "geometry": {"type": "Point", "coordinates": [-74.001773, 40.715387]}}, {"type": "Feature", "properties": {"name": "96th St Train Station (under our supervision)", "address": "96 St & Lexington Ave", "Borough": "Manhattan"}, "geometry": {"type": "Point", "coordinates": [-73.951092, 40.785787]}}, {"type": "Feature", "properties": {"name": "96th St Train Station (under our supervision)", "address": "96 St & Lexington Ave", "Borough": "Manhattan"}, "geometry": {"type": "Point", "coordinates": [-73.95092199999998, 40.785717]}}, {"type": "Feature", "properties": {"name": "Al Smith Rec Ctr", "address": "80 Catherine St", "Borough": "Manhattan"}, "geometry": {"type": "Point", "coordinates": [-73.99697900000002, 40.710412]}}, {"type": "Feature", "properties": {"name": "Asser Levy Rec Ctr", "address": "384 Asser Levy Pl", "Borough": "Manhattan"}, "geometry": {"type": "Point", "coordinates": [-73.97550799999998, 40.736271]}}, {"type": "Feature", "properties": {"name": "Battery Park - DSNY Partnership", "address": "Battery Park ", "Borough": "Manhattan"}, "geometry": {"type": "Point", "coordinates": [-74.01695699999998, 40.704592]}}, {"type": "Feature", "properties": {"name": "Battery Park City", "address": "Battery Park City", "Borough": "Manhattan"}, "geometry": {"type": "Point", "coordinates": [-74.016051, 40.711576]}}, {"type": "Feature", "properties": {"name": "Battery Park City", "address": "Battery Park City", "Borough": "Manhattan"}, "geometry": {"type": "Point", "coordinates": [-74.017115, 40.705075]}}, {"type": "Feature", "properties": {"name": "Bayard St & Baxter St", "address": "100 Centre Street", "Borough": "Manhattan"}, "geometry": {"type": "Point", "coordinates": [-74.000134, 40.716091999999996]}}, {"type": "Feature", "properties": {"name": "Bellevue South", "address": "Mt. Carmel Pl Btwn E 26 St & E 28 St", "Borough": "Manhattan"}, "geometry": {"type": "Point", "coordinates": [-73.978053, 40.739982]}}, {"type": "Feature", "properties": {"name": "Bennett Park", "address": "Bennett Park", "Borough": "Manhattan"}, "geometry": {"type": "Point", "coordinates": [-73.938098, 40.852856]}}, {"type": "Feature", "properties": {"name": "Bleecker St. Playground", "address": "W 11 St Btwn Hudson St & Bleecker St", "Borough": "Manhattan"}, "geometry": {"type": "Point", "coordinates": [-74.005572, 40.736401]}}, {"type": "Feature", "properties": {"name": "Broadway & Murray St", "address": "Outside Entrance", "Borough": "Manhattan"}, "geometry": {"type": "Point", "coordinates": [-74.00726199999998, 40.712939]}}, {"type": "Feature", "properties": {"name": "Broadway & Park Place", "address": "Outside Plaza Entrance", "Borough": "Manhattan"}, "geometry": {"type": "Point", "coordinates": [-74.007642, 40.71248]}}, {"type": "Feature", "properties": {"name": "Bryant Park", "address": "Bryant Park", "Borough": "Manhattan"}, "geometry": {"type": "Point", "coordinates": [-73.983402, 40.754391]}}, {"type": "Feature", "properties": {"name": "Bryant Park - Bryant Park Corp.", "address": "Bryant Park", "Borough": "Manhattan"}, "geometry": {"type": "Point", "coordinates": [-73.984092, 40.753954]}}, {"type": "Feature", "properties": {"name": "Carl Shurz", "address": "Carl Shurz Park", "Borough": "Manhattan"}, "geometry": {"type": "Point", "coordinates": [-73.943837, 40.77453]}}, {"type": "Feature", "properties": {"name": "Carrie McCracken Garden/TRUCE", "address": "143-145 St. Nicholas Avenue ", "Borough": "Manhattan"}, "geometry": {"type": "Point", "coordinates": [-73.952985, 40.80455900000001]}}, {"type": "Feature", "properties": {"name": "Centre St & Chambers St", "address": "31 Chambers Street", "Borough": "Manhattan"}, "geometry": {"type": "Point", "coordinates": [-74.004816, 40.712796000000004]}}, {"type": "Feature", "properties": {"name": "Chelsea Park", "address": "Chelsea Park", "Borough": "Manhattan"}, "geometry": {"type": "Point", "coordinates": [-74.000856, 40.749849]}}, {"type": "Feature", "properties": {"name": "Chelsea Rec Center", "address": "430 W 25 St", "Borough": "Manhattan"}, "geometry": {"type": "Point", "coordinates": [-74.00200699999998, 40.748355]}}, {"type": "Feature", "properties": {"name": "Chelsea Waterside Park Field", "address": "Hudson River Park ", "Borough": "Manhattan"}, "geometry": {"type": "Point", "coordinates": [-74.007351, 40.749349]}}, {"type": "Feature", "properties": {"name": "Chelsea Waterside Park Playground", "address": "Hudson River Park ", "Borough": "Manhattan"}, "geometry": {"type": "Point", "coordinates": [-74.00698099999998, 40.749318]}}, {"type": "Feature", "properties": {"name": "City Hall Park ", "address": "City Hall Park ", "Borough": "Manhattan"}, "geometry": {"type": "Point", "coordinates": [-74.007124, 40.711834]}}, {"type": "Feature", "properties": {"name": "City Hall Park ", "address": "City Hall Park ", "Borough": "Manhattan"}, "geometry": {"type": "Point", "coordinates": [-74.004808, 40.712806]}}, {"type": "Feature", "properties": {"name": "City Hall Park ", "address": "City Hall Park ", "Borough": "Manhattan"}, "geometry": {"type": "Point", "coordinates": [-74.00726899999998, 40.712897]}}, {"type": "Feature", "properties": {"name": "City Hall Park ", "address": "City Hall Park ", "Borough": "Manhattan"}, "geometry": {"type": "Point", "coordinates": [-74.007573, 40.712517]}}, {"type": "Feature", "properties": {"name": "Coleman Square Playground", "address": "Coleman Square Playground", "Borough": "Manhattan"}, "geometry": {"type": "Point", "coordinates": [-73.99381899999999, 40.710746]}}, {"type": "Feature", "properties": {"name": "Colonel Young", "address": "Colonel Charles Young Playground", "Borough": "Manhattan"}, "geometry": {"type": "Point", "coordinates": [-73.936417, 40.819645]}}, {"type": "Feature", "properties": {"name": "Columbus Park - DSNY Partnership", "address": "Columbus Park", "Borough": "Manhattan"}, "geometry": {"type": "Point", "coordinates": [-74.000096, 40.71475]}}, {"type": "Feature", "properties": {"name": "Courtyard West ", "address": "Hudson River Park ", "Borough": "Manhattan"}, "geometry": {"type": "Point", "coordinates": [-74.01073499999998, 40.732377]}}, {"type": "Feature", "properties": {"name": "Crack is Wack", "address": "Harlem River Dr & 2 Ave ", "Borough": "Manhattan"}, "geometry": {"type": "Point", "coordinates": [-73.931744, 40.804284]}}, {"type": "Feature", "properties": {"name": "Desalvio", "address": "DeSalvio Playground", "Borough": "Manhattan"}, "geometry": {"type": "Point", "coordinates": [-73.996052, 40.721757]}}, {"type": "Feature", "properties": {"name": "DSNY Main Office -Worth St", "address": "Centre Street", "Borough": "Manhattan"}, "geometry": {"type": "Point", "coordinates": [-74.002359, 40.715109999999996]}}, {"type": "Feature", "properties": {"name": "DSNY Main Office -Worth St", "address": "Lafayette Street", "Borough": "Manhattan"}, "geometry": {"type": "Point", "coordinates": [-74.00298499999998, 40.715356]}}, {"type": "Feature", "properties": {"name": "Each One Teach One", "address": "Lexington Ave & E 129 St", "Borough": "Manhattan"}, "geometry": {"type": "Point", "coordinates": [-73.934751, 40.807191]}}, {"type": "Feature", "properties": {"name": "East River Park- DSNY partnership", "address": "East River Bikeway", "Borough": "Manhattan"}, "geometry": {"type": "Point", "coordinates": [-73.975494, 40.716205]}}, {"type": "Feature", "properties": {"name": "Fashion BID", "address": "Broadway Btwn 39 St & 40 St", "Borough": "Manhattan"}, "geometry": {"type": "Point", "coordinates": [-73.986947, 40.753938]}}, {"type": "Feature", "properties": {"name": "Fashion BID", "address": "57 St & Lexington Ave", "Borough": "Manhattan"}, "geometry": {"type": "Point", "coordinates": [-73.969307, 40.760842]}}, {"type": "Feature", "properties": {"name": "Father Dumo Square", "address": "Father Demo Square", "Borough": "Manhattan"}, "geometry": {"type": "Point", "coordinates": [-74.002246, 40.730225]}}, {"type": "Feature", "properties": {"name": "Foley Square - DSNY Partnership", "address": "Foley Square, Duane St", "Borough": "Manhattan"}, "geometry": {"type": "Point", "coordinates": [-74.003085, 40.714357]}}, {"type": "Feature", "properties": {"name": "Foley Square - DSNY Partnership", "address": "Foley Square, Worth St", "Borough": "Manhattan"}, "geometry": {"type": "Point", "coordinates": [-74.002599, 40.715167]}}, {"type": "Feature", "properties": {"name": "Fred Johnson", "address": "7 Ave Btwn 150 St & 151 St", "Borough": "Manhattan"}, "geometry": {"type": "Point", "coordinates": [-73.93562299999998, 40.824847]}}, {"type": "Feature", "properties": {"name": "Grand Central", "address": " 42 St & Lexington Ave", "Borough": "Manhattan"}, "geometry": {"type": "Point", "coordinates": [-73.975975, 40.751692]}}, {"type": "Feature", "properties": {"name": "Greenwich & Murray", "address": "270 Greenwich Street", "Borough": "Manhattan"}, "geometry": {"type": "Point", "coordinates": [-74.011382, 40.715109000000005]}}, {"type": "Feature", "properties": {"name": "Hamilton Fish", "address": "Hamilton Fish Park", "Borough": "Manhattan"}, "geometry": {"type": "Point", "coordinates": [-73.981432, 40.719937]}}, {"type": "Feature", "properties": {"name": "Hamilton Fish Recreation Center", "address": "Pitt St", "Borough": "Manhattan"}, "geometry": {"type": "Point", "coordinates": [-73.981636, 40.720057]}}, {"type": "Feature", "properties": {"name": "Hamilton Fish Recreation Center", "address": "East River Bikeway", "Borough": "Manhattan"}, "geometry": {"type": "Point", "coordinates": [-73.975256, 40.716618]}}, {"type": "Feature", "properties": {"name": "Hamilton Fish Recreation Center", "address": "East River Bikeway", "Borough": "Manhattan"}, "geometry": {"type": "Point", "coordinates": [-73.974858, 40.717499]}}, {"type": "Feature", "properties": {"name": "Hamilton Fish Recreation Center", "address": "East River Bikeway", "Borough": "Manhattan"}, "geometry": {"type": "Point", "coordinates": [-73.97467399999998, 40.718371999999995]}}, {"type": "Feature", "properties": {"name": "Hamilton Fish Recreation Center", "address": "East River Bikeway", "Borough": "Manhattan"}, "geometry": {"type": "Point", "coordinates": [-73.974598, 40.718888]}}, {"type": "Feature", "properties": {"name": "Hamilton Fish Recreation Center", "address": "East River Bikeway", "Borough": "Manhattan"}, "geometry": {"type": "Point", "coordinates": [-73.974488, 40.719832]}}, {"type": "Feature", "properties": {"name": "Hamilton Fish Recreation Center", "address": "East River Bikeway", "Borough": "Manhattan"}, "geometry": {"type": "Point", "coordinates": [-73.974323, 40.721303000000006]}}, {"type": "Feature", "properties": {"name": "Hamilton Fish Recreation Center", "address": "East River Bikeway", "Borough": "Manhattan"}, "geometry": {"type": "Point", "coordinates": [-73.973828, 40.722911]}}, {"type": "Feature", "properties": {"name": "Hamilton Fish Recreation Center", "address": "East River Bikeway", "Borough": "Manhattan"}, "geometry": {"type": "Point", "coordinates": [-73.973184, 40.723896]}}, {"type": "Feature", "properties": {"name": "Hamilton Fish Recreation Center", "address": "East River Bikeway", "Borough": "Manhattan"}, "geometry": {"type": "Point", "coordinates": [-73.973016, 40.724113]}}, {"type": "Feature", "properties": {"name": "Hamilton Fish Recreation Center", "address": "East River Bikeway", "Borough": "Manhattan"}, "geometry": {"type": "Point", "coordinates": [-73.972364, 40.725238]}}, {"type": "Feature", "properties": {"name": "Hansboro", "address": "35 W 134 St", "Borough": "Manhattan"}, "geometry": {"type": "Point", "coordinates": [-73.939317, 40.812748]}}, {"type": "Feature", "properties": {"name": "Harlem RBI \u2013 Community Group", "address": "333 E 100 St", "Borough": "Manhattan"}, "geometry": {"type": "Point", "coordinates": [-73.943294, 40.78613]}}, {"type": "Feature", "properties": {"name": "Harlem River Ballfield", "address": "Harlem River Park", "Borough": "Manhattan"}, "geometry": {"type": "Point", "coordinates": [-73.934206, 40.806036]}}, {"type": "Feature", "properties": {"name": "Harrison St Basketball Court", "address": "Hudson River Park ", "Borough": "Manhattan"}, "geometry": {"type": "Point", "coordinates": [-74.013092, 40.718742]}}, {"type": "Feature", "properties": {"name": "High Line Park", "address": "Washington St & Gansevoort St", "Borough": "Manhattan"}, "geometry": {"type": "Point", "coordinates": [-74.008162, 40.739465]}}, {"type": "Feature", "properties": {"name": "High Line Park", "address": "High Line Park", "Borough": "Manhattan"}, "geometry": {"type": "Point", "coordinates": [-74.00805599999998, 40.74085]}}, {"type": "Feature", "properties": {"name": "High Line Park", "address": "High Line Park", "Borough": "Manhattan"}, "geometry": {"type": "Point", "coordinates": [-74.00703399999999, 40.743297999999996]}}, {"type": "Feature", "properties": {"name": "Highbridge", "address": "Washington Bridge", "Borough": "Manhattan"}, "geometry": {"type": "Point", "coordinates": [-73.92925100000002, 40.847983]}}, {"type": "Feature", "properties": {"name": "Highline Entrance+Park", "address": "W 20 St", "Borough": "Manhattan"}, "geometry": {"type": "Point", "coordinates": [-74.006109, 40.746041]}}, {"type": "Feature", "properties": {"name": "Hudson River Park", "address": "Hudson River Park", "Borough": "Manhattan"}, "geometry": {"type": "Point", "coordinates": [-74.01097299999998, 40.731457]}}, {"type": "Feature", "properties": {"name": "Hudson River Park", "address": "14 St Park", "Borough": "Manhattan"}, "geometry": {"type": "Point", "coordinates": [-74.008033, 40.742795]}}, {"type": "Feature", "properties": {"name": "Hudson River Park", "address": "Pier 62 Garden Area", "Borough": "Manhattan"}, "geometry": {"type": "Point", "coordinates": [-74.008825, 40.748684000000004]}}, {"type": "Feature", "properties": {"name": "Hudson River Park", "address": "Pier 62 Skate Park", "Borough": "Manhattan"}, "geometry": {"type": "Point", "coordinates": [-74.00928299999998, 40.748507000000004]}}, {"type": "Feature", "properties": {"name": "Hudson River Park", "address": "Pier 51 Playground", "Borough": "Manhattan"}, "geometry": {"type": "Point", "coordinates": [-74.010417, 40.738145]}}, {"type": "Feature", "properties": {"name": "Hudson River Park", "address": "Pier 84 (43 St Bike Shop)", "Borough": "Manhattan"}, "geometry": {"type": "Point", "coordinates": [-74.001011, 40.762839]}}, {"type": "Feature", "properties": {"name": "Hudson River Park", "address": "Pier 66 Seating Area", "Borough": "Manhattan"}, "geometry": {"type": "Point", "coordinates": [-74.008443, 40.751987]}}, {"type": "Feature", "properties": {"name": "Hudson River Park", "address": "Pier 95", "Borough": "Manhattan"}, "geometry": {"type": "Point", "coordinates": [-73.995824, 40.770381]}}, {"type": "Feature", "properties": {"name": "Hudson River Park", "address": "Pier 40 Courtyard & Tunel", "Borough": "Manhattan"}, "geometry": {"type": "Point", "coordinates": [-74.011899, 40.728833]}}, {"type": "Feature", "properties": {"name": "Hudson River Park", "address": "Tennis Courts", "Borough": "Manhattan"}, "geometry": {"type": "Point", "coordinates": [-74.01151199999998, 40.727097]}}, {"type": "Feature", "properties": {"name": "Hudson River Park", "address": "60 Centre Street", "Borough": "Manhattan"}, "geometry": {"type": "Point", "coordinates": [-74.002176, 40.714665999999994]}}, {"type": "Feature", "properties": {"name": "Hudson River Park", "address": "Battery Park Entrance (State St & Water St)", "Borough": "Manhattan"}, "geometry": {"type": "Point", "coordinates": [-74.012879, 40.702411]}}, {"type": "Feature", "properties": {"name": "Hudson River Park", "address": "Essex St & Delancy St", "Borough": "Manhattan"}, "geometry": {"type": "Point", "coordinates": [-74.014393, 40.70235]}}, {"type": "Feature", "properties": {"name": "Hudson River Park", "address": "White Hall Ferry Terminal (Indoor & Outdoor)", "Borough": "Manhattan"}, "geometry": {"type": "Point", "coordinates": [-74.01199799999999, 40.701307]}}, {"type": "Feature", "properties": {"name": "Imagination Playground", "address": "Imagination Playground", "Borough": "Manhattan"}, "geometry": {"type": "Point", "coordinates": [-74.00421700000003, 40.706124]}}, {"type": "Feature", "properties": {"name": "Inwood Dyckman fields", "address": "Inwood Hill Park", "Borough": "Manhattan"}, "geometry": {"type": "Point", "coordinates": [-73.93076500000002, 40.87126]}}, {"type": "Feature", "properties": {"name": "Inwood Dyckman fields", "address": "Inwood Hill Park", "Borough": "Manhattan"}, "geometry": {"type": "Point", "coordinates": [-73.930199, 40.872594]}}, {"type": "Feature", "properties": {"name": "Inwood Hill", "address": "Inwood Hill Park", "Borough": "Manhattan"}, "geometry": {"type": "Point", "coordinates": [-73.929011, 40.867338]}}, {"type": "Feature", "properties": {"name": "Inwood Hill Nature Center", "address": "218 St & Indian Rd", "Borough": "Manhattan"}, "geometry": {"type": "Point", "coordinates": [-73.91842700000002, 40.87303]}}, {"type": "Feature", "properties": {"name": "J. Hood Wright", "address": "Jay Hood Wright Park", "Borough": "Manhattan"}, "geometry": {"type": "Point", "coordinates": [-73.940825, 40.84637]}}, {"type": "Feature", "properties": {"name": "J. Hood Wright", "address": "Jay Hood Wright Park", "Borough": "Manhattan"}, "geometry": {"type": "Point", "coordinates": [-73.940028, 40.84696]}}, {"type": "Feature", "properties": {"name": "Jackie Robinson", "address": "89 Bradhurst Ave", "Borough": "Manhattan"}, "geometry": {"type": "Point", "coordinates": [-73.942288, 40.824297]}}, {"type": "Feature", "properties": {"name": "Jackson Square", "address": "Jackson Square", "Borough": "Manhattan"}, "geometry": {"type": "Point", "coordinates": [-74.002882, 40.73895200000001]}}, {"type": "Feature", "properties": {"name": "Jacob Javits Playground", "address": "Fort Tyron Park", "Borough": "Manhattan"}, "geometry": {"type": "Point", "coordinates": [-73.934552, 40.859226]}}, {"type": "Feature", "properties": {"name": "Jacob Schiff", "address": "Jacob Schiff Playground ", "Borough": "Manhattan"}, "geometry": {"type": "Point", "coordinates": [-73.952107, 40.820071]}}, {"type": "Feature", "properties": {"name": "John Jay Park", "address": "John Jay Park", "Borough": "Manhattan"}, "geometry": {"type": "Point", "coordinates": [-73.949898, 40.76944500000001]}}, {"type": "Feature", "properties": {"name": "Life Spire (CRMD, Inc.)", "address": "2015 Lexington Avenue ", "Borough": "Manhattan"}, "geometry": {"type": "Point", "coordinates": [-73.938468, 40.802588]}}, {"type": "Feature", "properties": {"name": "Lincoln Square", "address": "Broadway & 66 St", "Borough": "Manhattan"}, "geometry": {"type": "Point", "coordinates": [-73.98195699999998, 40.773715]}}, {"type": "Feature", "properties": {"name": "Lincoln Square", "address": "Broadway & 63 St ", "Borough": "Manhattan"}, "geometry": {"type": "Point", "coordinates": [-73.982072, 40.771372]}}, {"type": "Feature", "properties": {"name": "Maggie's Garden", "address": "1547 Lexington Ave", "Borough": "Manhattan"}, "geometry": {"type": "Point", "coordinates": [-73.948059, 40.828677]}}, {"type": "Feature", "properties": {"name": "McCaffry Plgd \u2013 Parks", "address": "W 43 St Btwn 8 & 9 Ave", "Borough": "Manhattan"}, "geometry": {"type": "Point", "coordinates": [-73.991396, 40.758977]}}, {"type": "Feature", "properties": {"name": "Mobilization for Change Community Garden", "address": "955 Columbus Avenue ", "Borough": "Manhattan"}, "geometry": {"type": "Point", "coordinates": [-73.962203, 40.799707]}}, {"type": "Feature", "properties": {"name": "Morningside Park", "address": "W 116 St", "Borough": "Manhattan"}, "geometry": {"type": "Point", "coordinates": [-73.958455, 40.805621]}}, {"type": "Feature", "properties": {"name": "Morningside Park", "address": "Morningside Ave", "Borough": "Manhattan"}, "geometry": {"type": "Point", "coordinates": [-73.958298, 40.80413]}}, {"type": "Feature", "properties": {"name": "Morningside Park", "address": "W 113 St", "Borough": "Manhattan"}, "geometry": {"type": "Point", "coordinates": [-73.958336, 40.803133]}}, {"type": "Feature", "properties": {"name": "Morningside Park", "address": "Morningside Dr", "Borough": "Manhattan"}, "geometry": {"type": "Point", "coordinates": [-73.960854, 40.801921]}}, {"type": "Feature", "properties": {"name": "Morris Jumel Ecological Garden", "address": "455-457 W 162nd Street ", "Borough": "Manhattan"}, "geometry": {"type": "Point", "coordinates": [-73.939122, 40.835708]}}, {"type": "Feature", "properties": {"name": "Museum of Natural History/Planitarium", "address": "W 79 St & Columbus Ave", "Borough": "Manhattan"}, "geometry": {"type": "Point", "coordinates": [-73.97542, 40.781936]}}, {"type": "Feature", "properties": {"name": "Museum of Natural History/Planitarium", "address": "W 78 St & Columbus Ave", "Borough": "Manhattan"}, "geometry": {"type": "Point", "coordinates": [-73.975927, 40.78126500000001]}}, {"type": "Feature", "properties": {"name": "Museum of Natural History/Planitarium", "address": "Central Park West", "Borough": "Manhattan"}, "geometry": {"type": "Point", "coordinates": [-73.972924, 40.780558]}}, {"type": "Feature", "properties": {"name": "Museum of Natural History/Planitarium", "address": "W 81 St Loop", "Borough": "Manhattan"}, "geometry": {"type": "Point", "coordinates": [-73.972256, 40.782175]}}, {"type": "Feature", "properties": {"name": "Museum of Natural History/Planitarium", "address": "W 81 St Loop", "Borough": "Manhattan"}, "geometry": {"type": "Point", "coordinates": [-73.97321499999998, 40.782666]}}, {"type": "Feature", "properties": {"name": "Our Little Green Acres (Garden Eight)", "address": "275-277 W. 122nd St.", "Borough": "Manhattan"}, "geometry": {"type": "Point", "coordinates": [-73.95205, 40.808183]}}, {"type": "Feature", "properties": {"name": "Park Row & Beekman Street", "address": "Outside Plaza  Entrance", "Borough": "Manhattan"}, "geometry": {"type": "Point", "coordinates": [-74.007142, 40.711826]}}, {"type": "Feature", "properties": {"name": "Parks Council Success Garden- P.S. 175 I.S. 275", "address": "116-122 West 134th Street ", "Borough": "Manhattan"}, "geometry": {"type": "Point", "coordinates": [-73.94349799999998, 40.814478]}}, {"type": "Feature", "properties": {"name": "Payson Playground", "address": "Inwood Hill Park", "Borough": "Manhattan"}, "geometry": {"type": "Point", "coordinates": [-73.929121, 40.867205]}}, {"type": "Feature", "properties": {"name": "Pelham Fritz", "address": "18 Mount Morris Park", "Borough": "Manhattan"}, "geometry": {"type": "Point", "coordinates": [-73.94628399999998, 40.805463]}}, {"type": "Feature", "properties": {"name": "Pier 25", "address": "Pier 25 West End, Hudson River Park", "Borough": "Manhattan"}, "geometry": {"type": "Point", "coordinates": [-74.01622299999998, 40.720478]}}, {"type": "Feature", "properties": {"name": "Pier 25 Mini Golf & Skate Park", "address": "Hudson River Park ", "Borough": "Manhattan"}, "geometry": {"type": "Point", "coordinates": [-74.01394899999998, 40.720176]}}, {"type": "Feature", "properties": {"name": "Pier 25 Playground", "address": "Pier 25 Playground West Gate, Hudson River Park", "Borough": "Manhattan"}, "geometry": {"type": "Point", "coordinates": [-74.012943, 40.719714]}}, {"type": "Feature", "properties": {"name": "Pier 40", "address": "Pier 40 Courtyard & Tunnel, Hudson River Park", "Borough": "Manhattan"}, "geometry": {"type": "Point", "coordinates": [-74.011317, 40.72917]}}, {"type": "Feature", "properties": {"name": "Pier 40 Dog Run", "address": "Pier 40, Hudson River Park", "Borough": "Manhattan"}, "geometry": {"type": "Point", "coordinates": [-74.01100499999998, 40.73038]}}, {"type": "Feature", "properties": {"name": "Pier 40 Roof", "address": "Pier 40, Hudson River Park", "Borough": "Manhattan"}, "geometry": {"type": "Point", "coordinates": [-74.011903, 40.728828]}}, {"type": "Feature", "properties": {"name": "Pier 45", "address": "Hudson River Park ", "Borough": "Manhattan"}, "geometry": {"type": "Point", "coordinates": [-74.010875, 40.732971]}}, {"type": "Feature", "properties": {"name": "Pier 57", "address": "Hudson River Park ", "Borough": "Manhattan"}, "geometry": {"type": "Point", "coordinates": [-74.009, 40.74341]}}, {"type": "Feature", "properties": {"name": "Pier 84 (44 St Park Building)", "address": "Hudson River Park ", "Borough": "Manhattan"}, "geometry": {"type": "Point", "coordinates": [-74.00004199999998, 40.763247]}}, {"type": "Feature", "properties": {"name": "Pleasant Village Community Garden", "address": "342-353 Pleasant Ave./502 E. 119th Street", "Borough": "Manhattan"}, "geometry": {"type": "Point", "coordinates": [-73.931602, 40.796609]}}, {"type": "Feature", "properties": {"name": "Promenade South", "address": "Hudson River Park ", "Borough": "Manhattan"}, "geometry": {"type": "Point", "coordinates": [-74.01597599999998, 40.707656]}}, {"type": "Feature", "properties": {"name": "Rec Center  54", "address": "E 54 St Btwn 1 Ave & 2 Ave", "Borough": "Manhattan"}, "geometry": {"type": "Point", "coordinates": [-73.96504300000002, 40.756564]}}, {"type": "Feature", "properties": {"name": "Riverside Park- Plgd @ 83rd St.", "address": "Riverside Park", "Borough": "Manhattan"}, "geometry": {"type": "Point", "coordinates": [-73.98225699999998, 40.787059]}}, {"type": "Feature", "properties": {"name": "Rucker Park-parks", "address": "155 St & Frederick Douglass Blvd", "Borough": "Manhattan"}, "geometry": {"type": "Point", "coordinates": [-73.936431, 40.829744]}}, {"type": "Feature", "properties": {"name": "Sara D. Roosevelt", "address": "Chrystie St", "Borough": "Manhattan"}, "geometry": {"type": "Point", "coordinates": [-73.991596, 40.721035]}}, {"type": "Feature", "properties": {"name": "Seward park", "address": "Seward park", "Borough": "Manhattan"}, "geometry": {"type": "Point", "coordinates": [-73.990111, 40.714603]}}, {"type": "Feature", "properties": {"name": "Sixth St. & Ave. B", "address": "78-92 Avenue B", "Borough": "Manhattan"}, "geometry": {"type": "Point", "coordinates": [-73.982088, 40.724254]}}, {"type": "Feature", "properties": {"name": "Soho Parnership", "address": "Broadway &  Prince St ", "Borough": "Manhattan"}, "geometry": {"type": "Point", "coordinates": [-73.997828, 40.724319]}}, {"type": "Feature", "properties": {"name": "Soho Partnership", "address": "Spring St & Lafayette St", "Borough": "Manhattan"}, "geometry": {"type": "Point", "coordinates": [-73.997287, 40.72227]}}, {"type": "Feature", "properties": {"name": "St. Catherine's ", "address": "St. Catherine's Park", "Borough": "Manhattan"}, "geometry": {"type": "Point", "coordinates": [-73.95850899999998, 40.76512]}}, {"type": "Feature", "properties": {"name": "St. Nicholas", "address": "135 St & St. Nicholas Ave", "Borough": "Manhattan"}, "geometry": {"type": "Point", "coordinates": [-73.94824799999999, 40.817271999999996]}}, {"type": "Feature", "properties": {"name": "St. Vartan's ", "address": "St. Vartan's Park", "Borough": "Manhattan"}, "geometry": {"type": "Point", "coordinates": [-73.973764, 40.744858]}}, {"type": "Feature", "properties": {"name": "Stuyvesant- Parks", "address": "East River Bikeway", "Borough": "Manhattan"}, "geometry": {"type": "Point", "coordinates": [-73.97406, 40.73277]}}, {"type": "Feature", "properties": {"name": "Thomas Jefferson", "address": "Jefferson Park", "Borough": "Manhattan"}, "geometry": {"type": "Point", "coordinates": [-73.937115, 40.793412]}}, {"type": "Feature", "properties": {"name": "Thomas Payne", "address": "Duane St & Centre St", "Borough": "Manhattan"}, "geometry": {"type": "Point", "coordinates": [-74.003135, 40.714045]}}, {"type": "Feature", "properties": {"name": "Thomas Payne", "address": "Duane St & Lafayette St", "Borough": "Manhattan"}, "geometry": {"type": "Point", "coordinates": [-74.00328499999998, 40.714224]}}, {"type": "Feature", "properties": {"name": "Thomas Payne", "address": "Centre St & Worth St", "Borough": "Manhattan"}, "geometry": {"type": "Point", "coordinates": [-74.00235500000002, 40.715059]}}, {"type": "Feature", "properties": {"name": "Thomas Payne", "address": "Lafayette St & Worth St", "Borough": "Manhattan"}, "geometry": {"type": "Point", "coordinates": [-74.00298199999997, 40.715355]}}, {"type": "Feature", "properties": {"name": "Times Square", "address": "42 St Btwn Broadway & 7 Ave", "Borough": "Manhattan"}, "geometry": {"type": "Point", "coordinates": [-73.98671199999998, 40.755914000000004]}}, {"type": "Feature", "properties": {"name": "Tompkins Square Park", "address": "Avenue A & E 7 St", "Borough": "Manhattan"}, "geometry": {"type": "Point", "coordinates": [-73.98335300000002, 40.72603]}}, {"type": "Feature", "properties": {"name": "Tompkins Square Park", "address": "Avenue A & St. Mark's Pl", "Borough": "Manhattan"}, "geometry": {"type": "Point", "coordinates": [-73.982985, 40.726599]}}, {"type": "Feature", "properties": {"name": "Tompkins Square Park", "address": "Avenue B & E 8 St", "Borough": "Manhattan"}, "geometry": {"type": "Point", "coordinates": [-73.98084300000002, 40.725698]}}, {"type": "Feature", "properties": {"name": "Tony Dapolito", "address": "1 Clarkson St", "Borough": "Manhattan"}, "geometry": {"type": "Point", "coordinates": [-74.005489, 40.729474]}}, {"type": "Feature", "properties": {"name": "Tribeca Partnership", "address": "Greenwich & North Moore", "Borough": "Manhattan"}, "geometry": {"type": "Point", "coordinates": [-74.010272, 40.719978999999995]}}, {"type": "Feature", "properties": {"name": "Union Square ", "address": "Union Square Park", "Borough": "Manhattan"}, "geometry": {"type": "Point", "coordinates": [-73.991012, 40.735243]}}, {"type": "Feature", "properties": {"name": "Union Square ", "address": "Union Square Park", "Borough": "Manhattan"}, "geometry": {"type": "Point", "coordinates": [-73.991603, 40.735219]}}, {"type": "Feature", "properties": {"name": "Union Square ", "address": "Union Square Park", "Borough": "Manhattan"}, "geometry": {"type": "Point", "coordinates": [-73.991614, 40.735292]}}, {"type": "Feature", "properties": {"name": "Union Square ", "address": "Union Square Park", "Borough": "Manhattan"}, "geometry": {"type": "Point", "coordinates": [-73.990324, 40.737023]}}, {"type": "Feature", "properties": {"name": "Union Square ", "address": "Union Square Park", "Borough": "Manhattan"}, "geometry": {"type": "Point", "coordinates": [-73.989754, 40.736535]}}, {"type": "Feature", "properties": {"name": "Union Square ", "address": "Union Square Park", "Borough": "Manhattan"}, "geometry": {"type": "Point", "coordinates": [-73.98963, 40.736122]}}, {"type": "Feature", "properties": {"name": "Union Square ", "address": "Union Square Park", "Borough": "Manhattan"}, "geometry": {"type": "Point", "coordinates": [-73.990127, 40.73534]}}, {"type": "Feature", "properties": {"name": "Verdi Square", "address": "Verdi Square", "Borough": "Manhattan"}, "geometry": {"type": "Point", "coordinates": [-73.981788, 40.77878]}}, {"type": "Feature", "properties": {"name": "Vesuvio Playground", "address": "Thompson St", "Borough": "Manhattan"}, "geometry": {"type": "Point", "coordinates": [-74.002324, 40.72534]}}, {"type": "Feature", "properties": {"name": "Wall Street (South/Front)", "address": "107 Wall Street", "Borough": "Manhattan"}, "geometry": {"type": "Point", "coordinates": [-74.006729, 40.704695]}}, {"type": "Feature", "properties": {"name": "Wall Street (Water/Front)", "address": "100 Wall Street", "Borough": "Manhattan"}, "geometry": {"type": "Point", "coordinates": [-74.00708399999999, 40.704919]}}, {"type": "Feature", "properties": {"name": "Warren & Greenwich", "address": "270 Greenwich Street", "Borough": "Manhattan"}, "geometry": {"type": "Point", "coordinates": [-74.011301, 40.715575]}}, {"type": "Feature", "properties": {"name": "Washington Market Playground", "address": "Washington Market Park", "Borough": "Manhattan"}, "geometry": {"type": "Point", "coordinates": [-74.01100100000002, 40.717298]}}, {"type": "Feature", "properties": {"name": "Washington Square Park", "address": "Washington Square Park", "Borough": "Manhattan"}, "geometry": {"type": "Point", "coordinates": [-73.99662, 40.729689]}}, {"type": "Feature", "properties": {"name": "West 124th Street Community Garden", "address": "West 124th Street and 5th Avenue ", "Borough": "Manhattan"}, "geometry": {"type": "Point", "coordinates": [-73.945301, 40.806938]}}, {"type": "Feature", "properties": {"name": "West 4th St. Courts (PLGD)", "address": "6 Ave Btwn W 3 St & W 4 St", "Borough": "Manhattan"}, "geometry": {"type": "Point", "coordinates": [-74.000988, 40.731315]}}, {"type": "Feature", "properties": {"name": "West End Avenuw", "address": "West End Ave & 86 St", "Borough": "Manhattan"}, "geometry": {"type": "Point", "coordinates": [-73.977788, 40.788757000000004]}}, {"type": "Feature", "properties": {"name": "Whitehall Ferry Terminal", "address": "State Street outside Whitehall Ferry Terminal ", "Borough": "Manhattan"}, "geometry": {"type": "Point", "coordinates": [-74.01438399999999, 40.702335]}}, {"type": "Feature", "properties": {"name": "A.R.R.O.W. Field house", "address": "35-30 35 St", "Borough": "Queens"}, "geometry": {"type": "Point", "coordinates": [-73.92631, 40.755803]}}, {"type": "Feature", "properties": {"name": "Addabo Park", "address": "Addabo Park", "Borough": "Queens"}, "geometry": {"type": "Point", "coordinates": [-73.85460999999998, 40.673137]}}, {"type": "Feature", "properties": {"name": "Al Oerter Rec Center ", "address": "131-40 Fowler Ave", "Borough": "Queens"}, "geometry": {"type": "Point", "coordinates": [-73.833843, 40.751418]}}, {"type": "Feature", "properties": {"name": "Alley Pond Environmental", "address": "22806 Northern Blvd", "Borough": "Queens"}, "geometry": {"type": "Point", "coordinates": [-73.753297, 40.76269]}}, {"type": "Feature", "properties": {"name": "Alley Springfield, picnic and athletic", "address": "Alley Pond Park", "Borough": "Queens"}, "geometry": {"type": "Point", "coordinates": [-73.734291, 40.740063]}}, {"type": "Feature", "properties": {"name": "Alley Springfield, picnic and athletic", "address": "Alley Pond Park", "Borough": "Queens"}, "geometry": {"type": "Point", "coordinates": [-73.734881, 40.739523]}}, {"type": "Feature", "properties": {"name": "Alley Springfield, picnic and athletic", "address": "Alley Pond Park", "Borough": "Queens"}, "geometry": {"type": "Point", "coordinates": [-73.735873, 40.739295]}}, {"type": "Feature", "properties": {"name": "Alley Springfield, picnic and athletic", "address": "Alley Pond Park", "Borough": "Queens"}, "geometry": {"type": "Point", "coordinates": [-73.737665, 40.738986]}}, {"type": "Feature", "properties": {"name": "Alley Springfield, picnic and athletic", "address": "Alley Pond Park", "Borough": "Queens"}, "geometry": {"type": "Point", "coordinates": [-73.73546, 40.739758]}}, {"type": "Feature", "properties": {"name": "Astoria Park", "address": "Astoria Park S", "Borough": "Queens"}, "geometry": {"type": "Point", "coordinates": [-73.92753, 40.776788]}}, {"type": "Feature", "properties": {"name": "Austin E", "address": "Ehrenreich-Austin Playground", "Borough": "Queens"}, "geometry": {"type": "Point", "coordinates": [-73.836995, 40.715851]}}, {"type": "Feature", "properties": {"name": "B.C.C.A. Mini-Park and Garden", "address": "150-14 115th Drive ", "Borough": "Queens"}, "geometry": {"type": "Point", "coordinates": [-73.79213, 40.683453]}}, {"type": "Feature", "properties": {"name": "Baisley Pond Park", "address": "155 St & 125 Ave", "Borough": "Queens"}, "geometry": {"type": "Point", "coordinates": [-73.786905, 40.675268]}}, {"type": "Feature", "properties": {"name": "Baisley Pond Park", "address": "Lakeview Blvd & 118 Ave", "Borough": "Queens"}, "geometry": {"type": "Point", "coordinates": [-73.785392, 40.682418]}}, {"type": "Feature", "properties": {"name": "Baisley Pond Park", "address": "155 St & 118 Ave", "Borough": "Queens"}, "geometry": {"type": "Point", "coordinates": [-73.78785399999998, 40.681366]}}, {"type": "Feature", "properties": {"name": "Bland Playground", "address": "Bland Playground", "Borough": "Queens"}, "geometry": {"type": "Point", "coordinates": [-73.83100799999998, 40.758381]}}, {"type": "Feature", "properties": {"name": "Block Association #81", "address": "Inwood Stree between Lakewood & Shore Aves", "Borough": "Queens"}, "geometry": {"type": "Point", "coordinates": [-73.80382199999998, 40.690594]}}, {"type": "Feature", "properties": {"name": "Brookville Park", "address": "143 Ave", "Borough": "Queens"}, "geometry": {"type": "Point", "coordinates": [-73.74132899999998, 40.66346]}}, {"type": "Feature", "properties": {"name": "Brookville Park", "address": "232 St", "Borough": "Queens"}, "geometry": {"type": "Point", "coordinates": [-73.746639, 40.661051]}}, {"type": "Feature", "properties": {"name": "Brookville Park", "address": "147 Ave", "Borough": "Queens"}, "geometry": {"type": "Point", "coordinates": [-73.748388, 40.657674]}}, {"type": "Feature", "properties": {"name": "Buzz O'Rourke Playground", "address": "Crocheron Park", "Borough": "Queens"}, "geometry": {"type": "Point", "coordinates": [-73.77173999999998, 40.770753000000006]}}, {"type": "Feature", "properties": {"name": "Byrne Park", "address": "135 Ave btwn 131 St & 132 St", "Borough": "Queens"}, "geometry": {"type": "Point", "coordinates": [-73.807496, 40.667505]}}, {"type": "Feature", "properties": {"name": "Captain Tilly", "address": "Captain Tilly Park", "Borough": "Queens"}, "geometry": {"type": "Point", "coordinates": [-73.799377, 40.712528999999996]}}, {"type": "Feature", "properties": {"name": "Charybdis plgd", "address": "Astoria Park", "Borough": "Queens"}, "geometry": {"type": "Point", "coordinates": [-73.922391, 40.779897]}}, {"type": "Feature", "properties": {"name": "Crocheron Park", "address": "33 Rd & 215 Pl", "Borough": "Queens"}, "geometry": {"type": "Point", "coordinates": [-73.76943799999998, 40.772079999999995]}}, {"type": "Feature", "properties": {"name": "Culinary Kids", "address": "30-15 Seagirt Blvd. @ Beach 31st Street", "Borough": "Queens"}, "geometry": {"type": "Point", "coordinates": [-73.76226599999998, 40.595548]}}, {"type": "Feature", "properties": {"name": "Cunningham Ballfields", "address": "Cunningham Park", "Borough": "Queens"}, "geometry": {"type": "Point", "coordinates": [-73.770538, 40.736722]}}, {"type": "Feature", "properties": {"name": "Cunningham Ballfields", "address": "Cunningham Park", "Borough": "Queens"}, "geometry": {"type": "Point", "coordinates": [-73.77208299999998, 40.73523]}}, {"type": "Feature", "properties": {"name": "Cunningham Picnic", "address": "Cunningham Park", "Borough": "Queens"}, "geometry": {"type": "Point", "coordinates": [-73.772458, 40.730965999999995]}}, {"type": "Feature", "properties": {"name": "Cunningham Soccer", "address": "Cunningham Park", "Borough": "Queens"}, "geometry": {"type": "Point", "coordinates": [-73.76499099999998, 40.73836]}}, {"type": "Feature", "properties": {"name": "Cunningham tennis courts", "address": "Cunningham Park", "Borough": "Queens"}, "geometry": {"type": "Point", "coordinates": [-73.7727, 40.730117]}}, {"type": "Feature", "properties": {"name": "Cunningham tennis courts", "address": "Cunningham Park", "Borough": "Queens"}, "geometry": {"type": "Point", "coordinates": [-73.77288799999998, 40.729499]}}, {"type": "Feature", "properties": {"name": "Detective Keith Williams", "address": "Detective Keith Williams Park", "Borough": "Queens"}, "geometry": {"type": "Point", "coordinates": [-73.783477, 40.701915]}}, {"type": "Feature", "properties": {"name": "Elmhurst Park", "address": "Elmhurst Park", "Borough": "Queens"}, "geometry": {"type": "Point", "coordinates": [-73.88530199999998, 40.730193]}}, {"type": "Feature", "properties": {"name": "Flushing Meadows Corona Park", "address": "United Nations Ave S", "Borough": "Queens"}, "geometry": {"type": "Point", "coordinates": [-73.84406799999998, 40.744248999999996]}}, {"type": "Feature", "properties": {"name": "Flushing Meadows Corona Park", "address": "Amphitheater Bridge", "Borough": "Queens"}, "geometry": {"type": "Point", "coordinates": [-73.841879, 40.740388]}}, {"type": "Feature", "properties": {"name": "Flushing Meadows Corona Park", "address": "Meadow Lake Trail E", "Borough": "Queens"}, "geometry": {"type": "Point", "coordinates": [-73.837856, 40.737039]}}, {"type": "Feature", "properties": {"name": "Flushing Meadows Corona Park", "address": "Dinosaur Playground", "Borough": "Queens"}, "geometry": {"type": "Point", "coordinates": [-73.843435, 40.735169]}}, {"type": "Feature", "properties": {"name": "Flushing Meadows Corona Park", "address": "Meadow Lake Trail W", "Borough": "Queens"}, "geometry": {"type": "Point", "coordinates": [-73.841976, 40.7333]}}, {"type": "Feature", "properties": {"name": "Flushing Meadows Corona Park", "address": "Baseball Field 13", "Borough": "Queens"}, "geometry": {"type": "Point", "coordinates": [-73.835592, 40.728112]}}, {"type": "Feature", "properties": {"name": "Flushing Meadows Corona Park", "address": "Unisphere", "Borough": "Queens"}, "geometry": {"type": "Point", "coordinates": [-73.844583, 40.746639]}}, {"type": "Feature", "properties": {"name": "Flushing Meadows Corona Park", "address": "Field 2, Avenue of Commerce", "Borough": "Queens"}, "geometry": {"type": "Point", "coordinates": [-73.84006599999998, 40.749151]}}, {"type": "Feature", "properties": {"name": "Flushing Meadows Pool", "address": "Avery Ave & 131 St", "Borough": "Queens"}, "geometry": {"type": "Point", "coordinates": [-73.83745899999998, 40.751882]}}, {"type": "Feature", "properties": {"name": "Forest Park", "address": "Bandshell", "Borough": "Queens"}, "geometry": {"type": "Point", "coordinates": [-73.85767199999998, 40.698413]}}, {"type": "Feature", "properties": {"name": "Forest Park", "address": "Tennis Courts", "Borough": "Queens"}, "geometry": {"type": "Point", "coordinates": [-73.85666399999998, 40.69747]}}, {"type": "Feature", "properties": {"name": "Forest Park", "address": "Dog Run", "Borough": "Queens"}, "geometry": {"type": "Point", "coordinates": [-73.860344, 40.69664]}}, {"type": "Feature", "properties": {"name": "Forest Park", "address": "Woodhaven Blvd & Park Lane S", "Borough": "Queens"}, "geometry": {"type": "Point", "coordinates": [-73.85329499999999, 40.697990000000004]}}, {"type": "Feature", "properties": {"name": "Forest Park", "address": "Victory Field Soccer & Running Track", "Borough": "Queens"}, "geometry": {"type": "Point", "coordinates": [-73.853145, 40.701854]}}, {"type": "Feature", "properties": {"name": "Forest Park", "address": "Victory Field Baseball", "Borough": "Queens"}, "geometry": {"type": "Point", "coordinates": [-73.854765, 40.702293]}}, {"type": "Feature", "properties": {"name": "Forest Park", "address": "Myrtle Ave & Park Lane S", "Borough": "Queens"}, "geometry": {"type": "Point", "coordinates": [-73.84192199999998, 40.701271999999996]}}, {"type": "Feature", "properties": {"name": "Fort Totten", "address": "Weaver Rd & Totten Ave", "Borough": "Queens"}, "geometry": {"type": "Point", "coordinates": [-73.77701299999998, 40.792357]}}, {"type": "Feature", "properties": {"name": "Fort Totten", "address": "North Loop", "Borough": "Queens"}, "geometry": {"type": "Point", "coordinates": [-73.779207, 40.794781]}}, {"type": "Feature", "properties": {"name": "Fort Totten", "address": "Story Rd", "Borough": "Queens"}, "geometry": {"type": "Point", "coordinates": [-73.77435699999998, 40.792085]}}, {"type": "Feature", "properties": {"name": "George Eagle Carr Community Garden", "address": "148th Street ", "Borough": "Queens"}, "geometry": {"type": "Point", "coordinates": [-73.79474499999999, 40.692406]}}, {"type": "Feature", "properties": {"name": "Glendale Playground", "address": "Glendale Playground", "Borough": "Queens"}, "geometry": {"type": "Point", "coordinates": [-73.88194399999999, 40.704591]}}, {"type": "Feature", "properties": {"name": "Greenthumb compound", "address": "10 St & Queens Plaza S", "Borough": "Queens"}, "geometry": {"type": "Point", "coordinates": [-73.947615, 40.753634999999996]}}, {"type": "Feature", "properties": {"name": "Grover Cleveland", "address": "Cleveland Park", "Borough": "Queens"}, "geometry": {"type": "Point", "coordinates": [-73.911456, 40.710069]}}, {"type": "Feature", "properties": {"name": "Grover Cleveland", "address": "Cleveland Park", "Borough": "Queens"}, "geometry": {"type": "Point", "coordinates": [-73.911063, 40.71031]}}, {"type": "Feature", "properties": {"name": "Hoffman Park", "address": "Hoffman Park", "Borough": "Queens"}, "geometry": {"type": "Point", "coordinates": [-73.87123299999999, 40.733135]}}, {"type": "Feature", "properties": {"name": "Hoffman Park", "address": "Hoffman Park", "Borough": "Queens"}, "geometry": {"type": "Point", "coordinates": [-73.87142699999998, 40.733143]}}, {"type": "Feature", "properties": {"name": "Hoffman Park", "address": "Hoffman Park", "Borough": "Queens"}, "geometry": {"type": "Point", "coordinates": [-73.870885, 40.733067999999996]}}, {"type": "Feature", "properties": {"name": "Hoffman Park", "address": "Hoffman Park", "Borough": "Queens"}, "geometry": {"type": "Point", "coordinates": [-73.87091599999998, 40.732938]}}, {"type": "Feature", "properties": {"name": "Hoffman Park", "address": "Hoffman Park", "Borough": "Queens"}, "geometry": {"type": "Point", "coordinates": [-73.871081, 40.732701]}}, {"type": "Feature", "properties": {"name": "Hoffman Park", "address": "Hoffman Park", "Borough": "Queens"}, "geometry": {"type": "Point", "coordinates": [-73.87182199999998, 40.733203]}}, {"type": "Feature", "properties": {"name": "Juniper Valley Park", "address": "Juniper Valley Park", "Borough": "Queens"}, "geometry": {"type": "Point", "coordinates": [-73.877521, 40.720689]}}, {"type": "Feature", "properties": {"name": "Juniper Valley Park", "address": "Juniper Valley Park", "Borough": "Queens"}, "geometry": {"type": "Point", "coordinates": [-73.876474, 40.720411999999996]}}, {"type": "Feature", "properties": {"name": "Juniper Valley Park", "address": "Juniper Valley Park", "Borough": "Queens"}, "geometry": {"type": "Point", "coordinates": [-73.884693, 40.719988]}}, {"type": "Feature", "properties": {"name": "Juniper Valley Park", "address": "Juniper Valley Park", "Borough": "Queens"}, "geometry": {"type": "Point", "coordinates": [-73.882971, 40.719840999999995]}}, {"type": "Feature", "properties": {"name": "Kissena Park", "address": "Booth Memorial Ave ", "Borough": "Queens"}, "geometry": {"type": "Point", "coordinates": [-73.81026099999998, 40.742502]}}, {"type": "Feature", "properties": {"name": "Kissena Park", "address": "Lithonia Ave ", "Borough": "Queens"}, "geometry": {"type": "Point", "coordinates": [-73.803658, 40.749228]}}, {"type": "Feature", "properties": {"name": "Kissena Park", "address": "Kissena Velodrome", "Borough": "Queens"}, "geometry": {"type": "Point", "coordinates": [-73.80933299999998, 40.744147999999996]}}, {"type": "Feature", "properties": {"name": "Kissena Park", "address": "Booth Memorial Ave ", "Borough": "Queens"}, "geometry": {"type": "Point", "coordinates": [-73.808518, 40.742364]}}, {"type": "Feature", "properties": {"name": "Kissena Park", "address": "Rose Ave", "Borough": "Queens"}, "geometry": {"type": "Point", "coordinates": [-73.809765, 40.747887]}}, {"type": "Feature", "properties": {"name": "LBH Rec Center", "address": "93-29 Queens Blvd", "Borough": "Queens"}, "geometry": {"type": "Point", "coordinates": [-73.86515, 40.732226000000004]}}, {"type": "Feature", "properties": {"name": "Marie Curie Playground", "address": "Marie Curie Park", "Borough": "Queens"}, "geometry": {"type": "Point", "coordinates": [-73.770978, 40.757265999999994]}}, {"type": "Feature", "properties": {"name": "McDonald Park", "address": "McDonald Park", "Borough": "Queens"}, "geometry": {"type": "Point", "coordinates": [-73.845511, 40.721815]}}, {"type": "Feature", "properties": {"name": "McDonald Park", "address": "McDonald Park", "Borough": "Queens"}, "geometry": {"type": "Point", "coordinates": [-73.84608, 40.722012]}}, {"type": "Feature", "properties": {"name": "McDonald Park", "address": "McDonald Park", "Borough": "Queens"}, "geometry": {"type": "Point", "coordinates": [-73.847477, 40.72248]}}, {"type": "Feature", "properties": {"name": "Parks Academy", "address": "Flushing Meadows Corona Park", "Borough": "Queens"}, "geometry": {"type": "Point", "coordinates": [-73.843676, 40.751632]}}, {"type": "Feature", "properties": {"name": "Passerelle ", "address": "Flushing Meadows Corona Park", "Borough": "Queens"}, "geometry": {"type": "Point", "coordinates": [-73.843676, 40.751632]}}, {"type": "Feature", "properties": {"name": "Passerelle - Aquatics", "address": "Flushing Meadows Corona Park", "Borough": "Queens"}, "geometry": {"type": "Point", "coordinates": [-73.84409999999998, 40.750333000000005]}}, {"type": "Feature", "properties": {"name": "Phil Rizzuto Park ", "address": "Phil Rizzuto Park ", "Borough": "Queens"}, "geometry": {"type": "Point", "coordinates": [-73.82211599999998, 40.694407]}}, {"type": "Feature", "properties": {"name": "Playground for All Children", "address": "Flushing Meadows Corona Park", "Borough": "Queens"}, "geometry": {"type": "Point", "coordinates": [-73.84931799999998, 40.740883000000004]}}, {"type": "Feature", "properties": {"name": "Pomonok Playground", "address": "Pomonok Playground", "Borough": "Queens"}, "geometry": {"type": "Point", "coordinates": [-73.814014, 40.736171]}}, {"type": "Feature", "properties": {"name": "Queens Hall of Science", "address": "47-01 111 St", "Borough": "Queens"}, "geometry": {"type": "Point", "coordinates": [-73.852214, 40.747127]}}, {"type": "Feature", "properties": {"name": "Queens Museum", "address": "New York City Building, Flushing Meadows Corona Park", "Borough": "Queens"}, "geometry": {"type": "Point", "coordinates": [-73.84672899999998, 40.745794000000004]}}, {"type": "Feature", "properties": {"name": "Queens Theatre", "address": "14 United Nations Ave S", "Borough": "Queens"}, "geometry": {"type": "Point", "coordinates": [-73.844476, 40.744152]}}, {"type": "Feature", "properties": {"name": "Queens Zoo", "address": "53-51 111 St", "Borough": "Queens"}, "geometry": {"type": "Point", "coordinates": [-73.85035499999998, 40.743598999999996]}}, {"type": "Feature", "properties": {"name": "Rainey park", "address": "Rainey Park", "Borough": "Queens"}, "geometry": {"type": "Point", "coordinates": [-73.941159, 40.765644]}}, {"type": "Feature", "properties": {"name": "Rockaway Beach ", "address": "B 105 St Boardwalk", "Borough": "Queens"}, "geometry": {"type": "Point", "coordinates": [-73.82493599999998, 40.580754]}}, {"type": "Feature", "properties": {"name": "Rockaway Beach ", "address": "B 102 St Boardwalk", "Borough": "Queens"}, "geometry": {"type": "Point", "coordinates": [-73.82337699999998, 40.5814]}}, {"type": "Feature", "properties": {"name": "Rockaway Beach ", "address": "B 100 St Boardwalk", "Borough": "Queens"}, "geometry": {"type": "Point", "coordinates": [-73.820127, 40.582137]}}, {"type": "Feature", "properties": {"name": "Rockaway Beach ", "address": "B 99 St Boardwalk", "Borough": "Queens"}, "geometry": {"type": "Point", "coordinates": [-73.819097, 40.582479]}}, {"type": "Feature", "properties": {"name": "Rockaway Beach ", "address": "B 97 St Boardwalk", "Borough": "Queens"}, "geometry": {"type": "Point", "coordinates": [-73.817858, 40.582825]}}, {"type": "Feature", "properties": {"name": "Rockaway Beach ", "address": "B 95 St Boardwalk", "Borough": "Queens"}, "geometry": {"type": "Point", "coordinates": [-73.815484, 40.583412]}}, {"type": "Feature", "properties": {"name": "Rockaway Beach ", "address": "B 91 St Boardwalk", "Borough": "Queens"}, "geometry": {"type": "Point", "coordinates": [-73.812472, 40.58415]}}, {"type": "Feature", "properties": {"name": "Rockaway Beach ", "address": "B 90 St Boardwalk", "Borough": "Queens"}, "geometry": {"type": "Point", "coordinates": [-73.811254, 40.5844]}}, {"type": "Feature", "properties": {"name": "Rockaway Beach ", "address": "B 81 St Boardwalk", "Borough": "Queens"}, "geometry": {"type": "Point", "coordinates": [-73.807265, 40.585826000000004]}}, {"type": "Feature", "properties": {"name": "Rockaway Beach ", "address": "Bayside Pl Boardwalk", "Borough": "Queens"}, "geometry": {"type": "Point", "coordinates": [-73.809223, 40.585105]}}, {"type": "Feature", "properties": {"name": "Rocket Park ", "address": "Rocket Park ", "Borough": "Queens"}, "geometry": {"type": "Point", "coordinates": [-73.84625699999998, 40.670613]}}, {"type": "Feature", "properties": {"name": "Roy Wilkens", "address": "Baisley Blvd", "Borough": "Queens"}, "geometry": {"type": "Point", "coordinates": [-73.769315, 40.685918]}}, {"type": "Feature", "properties": {"name": "Roy Wilkens", "address": "Roy Wilkens ", "Borough": "Queens"}, "geometry": {"type": "Point", "coordinates": [-73.77357399999998, 40.688249]}}, {"type": "Feature", "properties": {"name": "Roy Wilkens", "address": "115 Ave & 175 St", "Borough": "Queens"}, "geometry": {"type": "Point", "coordinates": [-73.77420699999999, 40.691010999999996]}}, {"type": "Feature", "properties": {"name": "Socrates Park", "address": "Socrates Park", "Borough": "Queens"}, "geometry": {"type": "Point", "coordinates": [-73.936159, 40.768029]}}, {"type": "Feature", "properties": {"name": "Sorrentino ", "address": "1848 Cornaga Ave", "Borough": "Queens"}, "geometry": {"type": "Point", "coordinates": [-73.751564, 40.602281]}}, {"type": "Feature", "properties": {"name": "Southern Fields ", "address": "Southern Pkwy", "Borough": "Queens"}, "geometry": {"type": "Point", "coordinates": [-73.824555, 40.665378999999994]}}, {"type": "Feature", "properties": {"name": "Southern Fields ", "address": "Southern Pkwy", "Borough": "Queens"}, "geometry": {"type": "Point", "coordinates": [-73.82670299999998, 40.665627]}}, {"type": "Feature", "properties": {"name": "St. Michaels", "address": "St. Michael's Playground", "Borough": "Queens"}, "geometry": {"type": "Point", "coordinates": [-73.900278, 40.758219]}}, {"type": "Feature", "properties": {"name": "Steinway St", "address": "BW 34 St & Broadway", "Borough": "Queens"}, "geometry": {"type": "Point", "coordinates": [-73.919785, 40.758155]}}, {"type": "Feature", "properties": {"name": "Sunnyside Garden Park", "address": "Sunnyside Garden Park", "Borough": "Queens"}, "geometry": {"type": "Point", "coordinates": [-73.91475, 40.749844]}}, {"type": "Feature", "properties": {"name": "Sunnyside Garden Park", "address": "Sunnyside Garden Park", "Borough": "Queens"}, "geometry": {"type": "Point", "coordinates": [-73.91513999999998, 40.749547]}}, {"type": "Feature", "properties": {"name": "Sunnyside Garden Park", "address": "Sunnyside Garden Park", "Borough": "Queens"}, "geometry": {"type": "Point", "coordinates": [-73.91427, 40.749687]}}, {"type": "Feature", "properties": {"name": "Travers Park", "address": "Travers Park", "Borough": "Queens"}, "geometry": {"type": "Point", "coordinates": [-73.889365, 40.754243]}}, {"type": "Feature", "properties": {"name": "Underhill", "address": "Cunningham Park", "Borough": "Queens"}, "geometry": {"type": "Point", "coordinates": [-73.77736199999998, 40.741628000000006]}}, {"type": "Feature", "properties": {"name": "William Simmons Community Garden Club", "address": "173 St", "Borough": "Queens"}, "geometry": {"type": "Point", "coordinates": [-73.78315, 40.701651]}}, {"type": "Feature", "properties": {"name": "World ice rink", "address": "Flushing Meadows Corona Park", "Borough": "Queens"}, "geometry": {"type": "Point", "coordinates": [-73.83731999999999, 40.751914]}}, {"type": "Feature", "properties": {"name": "Berry Homes ballfield", "address": "Gen. Douglas Macarthur Park, Dongan Hills Ave", "Borough": "Staten Island"}, "geometry": {"type": "Point", "coordinates": [-74.100364, 40.587445]}}, {"type": "Feature", "properties": {"name": "Berry Homes ballfield", "address": "Gen. Douglas Macarthur Park, Dongan Hills Ave", "Borough": "Staten Island"}, "geometry": {"type": "Point", "coordinates": [-74.100257, 40.586439]}}, {"type": "Feature", "properties": {"name": "150 St", "address": "New Dorp Lane & S Railroad Ave", "Borough": "Staten Island"}, "geometry": {"type": "Point", "coordinates": [-74.11662699999998, 40.574036]}}, {"type": "Feature", "properties": {"name": "Bloomingdale Playgound", "address": "Bloomingdale Park, Lenevar Ave & Ramona Ave", "Borough": "Staten Island"}, "geometry": {"type": "Point", "coordinates": [-74.208524, 40.53514000000001]}}, {"type": "Feature", "properties": {"name": "Bloomingdale Playgound", "address": "Bloomingdale Park ", "Borough": "Staten Island"}, "geometry": {"type": "Point", "coordinates": [-74.210241, 40.533819]}}, {"type": "Feature", "properties": {"name": "Bloomingdale Playgound", "address": "Bloomingdale Park, Richmond Pkwy & Lenevar Ave", "Borough": "Staten Island"}, "geometry": {"type": "Point", "coordinates": [-74.207153, 40.53152100000001]}}, {"type": "Feature", "properties": {"name": "Bloomingdale Playgound", "address": "Bloomingdale Park ", "Borough": "Staten Island"}, "geometry": {"type": "Point", "coordinates": [-74.210125, 40.535174]}}, {"type": "Feature", "properties": {"name": "Cedar Grove Beach", "address": "Cedar Grove Beach", "Borough": "Staten Island"}, "geometry": {"type": "Point", "coordinates": [-74.10392, 40.557382]}}, {"type": "Feature", "properties": {"name": "Cedar Grove Beach", "address": "Cedar Grove Beach", "Borough": "Staten Island"}, "geometry": {"type": "Point", "coordinates": [-74.10104, 40.560272]}}, {"type": "Feature", "properties": {"name": "Clove lake garage complex", "address": "Clove Lake Park", "Borough": "Staten Island"}, "geometry": {"type": "Point", "coordinates": [-74.118801, 40.620135]}}, {"type": "Feature", "properties": {"name": "Clove lake garage complex", "address": "Clove Lake Park", "Borough": "Staten Island"}, "geometry": {"type": "Point", "coordinates": [-74.118278, 40.618744]}}, {"type": "Feature", "properties": {"name": "Cloves Lake", "address": "Clove Lake Park", "Borough": "Staten Island"}, "geometry": {"type": "Point", "coordinates": [-74.113523, 40.613891]}}, {"type": "Feature", "properties": {"name": "Corporal Thompson Playground", "address": "CPL Thompson Park", "Borough": "Staten Island"}, "geometry": {"type": "Point", "coordinates": [-74.118791, 40.637872]}}, {"type": "Feature", "properties": {"name": "DeMatti Playground", "address": "Thompkins Ave Btwn Chestnut Ave & Shaughnessy Ln", "Borough": "Staten Island"}, "geometry": {"type": "Point", "coordinates": [-74.07412, 40.614615]}}, {"type": "Feature", "properties": {"name": "Faber Pool", "address": "Faber Pool and Park", "Borough": "Staten Island"}, "geometry": {"type": "Point", "coordinates": [-74.135418, 40.640999]}}, {"type": "Feature", "properties": {"name": "Graniteville", "address": "Jennifer's Playground", "Borough": "Staten Island"}, "geometry": {"type": "Point", "coordinates": [-74.16311548739999, 40.6200556871]}}, {"type": "Feature", "properties": {"name": "Greenbelt Nature Center", "address": "700 Rockland Ave", "Borough": "Staten Island"}, "geometry": {"type": "Point", "coordinates": [-74.138918, 40.588496]}}, {"type": "Feature", "properties": {"name": "Greenbelt Rec Ctr", "address": "501 Brielle Ave", "Borough": "Staten Island"}, "geometry": {"type": "Point", "coordinates": [-74.135646, 40.593686]}}, {"type": "Feature", "properties": {"name": "John M. D'Amato Field", "address": "Miller Field", "Borough": "Staten Island"}, "geometry": {"type": "Point", "coordinates": [-74.097531, 40.564469]}}, {"type": "Feature", "properties": {"name": "Lyons Pool", "address": "Tompkinsville Play Center", "Borough": "Staten Island"}, "geometry": {"type": "Point", "coordinates": [-74.074802, 40.637596]}}, {"type": "Feature", "properties": {"name": "MacArthur Park", "address": "MacArthur Park", "Borough": "Staten Island"}, "geometry": {"type": "Point", "coordinates": [-74.100975, 40.585877]}}, {"type": "Feature", "properties": {"name": "Mahony Playground", "address": "Crescent Ave Btwn Jersey St & Beechwood Ave", "Borough": "Staten Island"}, "geometry": {"type": "Point", "coordinates": [-74.086066, 40.643368]}}, {"type": "Feature", "properties": {"name": "Midland Beach", "address": "Midland Playground", "Borough": "Staten Island"}, "geometry": {"type": "Point", "coordinates": [-74.098706, 40.575019]}}, {"type": "Feature", "properties": {"name": "Midland Beach", "address": "Midland Field, Bedford Ave ", "Borough": "Staten Island"}, "geometry": {"type": "Point", "coordinates": [-74.098663, 40.57669]}}, {"type": "Feature", "properties": {"name": "Prall Playground", "address": "Forest Ave & Elizabeth St", "Borough": "Staten Island"}, "geometry": {"type": "Point", "coordinates": [-74.118013, 40.62885900000001]}}, {"type": "Feature", "properties": {"name": "Silver Lake Dog Run", "address": "Silver Lake Park", "Borough": "Staten Island"}, "geometry": {"type": "Point", "coordinates": [-74.091985, 40.627186]}}, {"type": "Feature", "properties": {"name": "Silver Lake Tennis", "address": "Silver Lake Park", "Borough": "Staten Island"}, "geometry": {"type": "Point", "coordinates": [-74.099058, 40.628358]}}, {"type": "Feature", "properties": {"name": "Staten Island Ferry Terminal", "address": "Richmond Terrace", "Borough": "Staten Island"}, "geometry": {"type": "Point", "coordinates": [-74.07572399999998, 40.642709]}}, {"type": "Feature", "properties": {"name": "Staten Island Ferry Terminal", "address": "Richmond Terrace", "Borough": "Staten Island"}, "geometry": {"type": "Point", "coordinates": [-74.075489, 40.642324]}}, {"type": "Feature", "properties": {"name": "Staten Island Ferry Terminal", "address": "Hyatt Ave", "Borough": "Staten Island"}, "geometry": {"type": "Point", "coordinates": [-74.076549, 40.642303000000005]}}, {"type": "Feature", "properties": {"name": "Tottenville Pool", "address": "Hylan Blvd", "Borough": "Staten Island"}, "geometry": {"type": "Point", "coordinates": [-74.235477, 40.505646]}}, {"type": "Feature", "properties": {"name": "Walker Park", "address": "Delafield Pl & Bard Ave", "Borough": "Staten Island"}, "geometry": {"type": "Point", "coordinates": [-74.108845, 40.643799]}}, {"type": "Feature", "properties": {"name": "Walker Park", "address": "Davis Ave & Livingston Ct", "Borough": "Staten Island"}, "geometry": {"type": "Point", "coordinates": [-74.11032, 40.642843]}}, {"type": "Feature", "properties": {"name": "Walker Park", "address": "Delafield Pl & Davis Ave", "Borough": "Staten Island"}, "geometry": {"type": "Point", "coordinates": [-74.11046, 40.643449]}}, {"type": "Feature", "properties": {"name": "Walker Park", "address": "Livingston Ct & bard Ave ", "Borough": "Staten Island"}, "geometry": {"type": "Point", "coordinates": [-74.108641, 40.643343]}}, {"type": "Feature", "properties": {"name": "West Brighton Pool", "address": "899 Henderson Ave ", "Borough": "Staten Island"}, "geometry": {"type": "Point", "coordinates": [-74.119287, 40.637121]}}, {"type": "Feature", "properties": {"name": "Willowbrook Park", "address": "Willowbrook Park", "Borough": "Staten Island"}, "geometry": {"type": "Point", "coordinates": [-74.158697, 40.603832]}}, {"type": "Feature", "properties": {"name": "Willowbrook Park", "address": "Willowbrook Park", "Borough": "Staten Island"}, "geometry": {"type": "Point", "coordinates": [-74.16125, 40.603828]}}, {"type": "Feature", "properties": {"name": "Wolfe's Pond", "address": "Wolfe's Pond", "Borough": "Staten Island"}, "geometry": {"type": "Point", "coordinates": [-74.190913, 40.517368]}}, {"type": "Feature", "properties": {"name": "Wolfe's Pond", "address": "Wolfe's Pond", "Borough": "Staten Island"}, "geometry": {"type": "Point", "coordinates": [-74.18730999999998, 40.518652]}}]}