{"type": "FeatureCollection", "features": [{"type": "Feature", "properties": {"name": "GOODWILL THRIFT SHOP", "address": "217 W 79 ST", "Borough": "Manhattan"}, "geometry": {"type": "Point", "coordinates": [-73.979, 40.78376]}}, {"type": "Feature", "properties": {"name": "STAPLES", "address": "2535 RICHMOND AVE", "Borough": "Staten Island"}, "geometry": {"type": "Point", "coordinates": [-74.16944000000002, 40.57428]}}, {"type": "Feature", "properties": {"name": "SALVATION ARMY THRIFT STORE", "address": "536 W 46 ST", "Borough": "Manhattan"}, "geometry": {"type": "Point", "coordinates": [-73.99538000000003, 40.76266]}}, {"type": "Feature", "properties": {"name": "STAPLES", "address": "20934 NORTHERN BLVD", "Borough": "Queens"}, "geometry": {"type": "Point", "coordinates": [-73.77299000000002, 40.75907]}}, {"type": "Feature", "properties": {"name": "STAPLES", "address": "10716 71 AVE", "Borough": "Queens"}, "geometry": {"type": "Point", "coordinates": [-73.84416999999998, 40.72044]}}, {"type": "Feature", "properties": {"name": "SALVATION ARMY THRIFT STORE", "address": "2582 3 AVE", "Borough": "Bronx"}, "geometry": {"type": "Point", "coordinates": [-73.92577, 40.81149]}}, {"type": "Feature", "properties": {"name": "GOODWILL THRIFT SHOP", "address": "258 LIVINGSTON ST", "Borough": "Brooklyn"}, "geometry": {"type": "Point", "coordinates": [-73.98421, 40.68875]}}, {"type": "Feature", "properties": {"name": "BEST BUY", "address": "5001 NORTHERN BLVD", "Borough": "Queens"}, "geometry": {"type": "Point", "coordinates": [-73.91212, 40.75345]}}, {"type": "Feature", "properties": {"name": "STAPLES", "address": "409 GATEWAY DRIVE", "Borough": "Brooklyn"}, "geometry": {"type": "Point", "coordinates": [-73.87326, 40.65392]}}, {"type": "Feature", "properties": {"name": "STAPLES", "address": "1760 UTICA AVE", "Borough": "Brooklyn"}, "geometry": {"type": "Point", "coordinates": [-73.92834, 40.62952]}}, {"type": "Feature", "properties": {"name": "SALVATION ARMY THRIFT STORE", "address": "4109 PARK AVE", "Borough": "Bronx"}, "geometry": {"type": "Point", "coordinates": [-73.90108000000002, 40.84555]}}, {"type": "Feature", "properties": {"name": "STAPLES", "address": "9318 ROOSEVELT AVE", "Borough": "Queens"}, "geometry": {"type": "Point", "coordinates": [-73.873, 40.74853]}}, {"type": "Feature", "properties": {"name": "STAPLES", "address": "5110 BROADWAY", "Borough": "Queens"}, "geometry": {"type": "Point", "coordinates": [-73.90899999999998, 40.75386]}}, {"type": "Feature", "properties": {"name": "SALVATION ARMY THRIFT STORE", "address": "981 MANHATTAN AVE", "Borough": "Brooklyn"}, "geometry": {"type": "Point", "coordinates": [-73.95496, 40.73261]}}, {"type": "Feature", "properties": {"name": "GOODWILL GREENWICH VILLAGE BOUTIQUE", "address": "44 W 8 ST", "Borough": "Manhattan"}, "geometry": {"type": "Point", "coordinates": [-73.99864000000002, 40.73295]}}, {"type": "Feature", "properties": {"name": "GOODWILL THRIFT SHOP", "address": "361 E 149 ST", "Borough": "Bronx"}, "geometry": {"type": "Point", "coordinates": [-73.9188, 40.81688]}}, {"type": "Feature", "properties": {"name": "STAPLES", "address": "425 PARK AVE", "Borough": "Manhattan"}, "geometry": {"type": "Point", "coordinates": [-73.97104, 40.76044]}}, {"type": "Feature", "properties": {"name": "STAPLES", "address": "1011 FLATBUSH AVE", "Borough": "Brooklyn"}, "geometry": {"type": "Point", "coordinates": [-73.95789, 40.64671]}}, {"type": "Feature", "properties": {"name": "BEST BUY", "address": "529 5 AVE", "Borough": "Manhattan"}, "geometry": {"type": "Point", "coordinates": [-73.97969, 40.75444]}}, {"type": "Feature", "properties": {"name": "GOODWILL THRIFT SHOP", "address": "2231 3 AVE", "Borough": "Manhattan"}, "geometry": {"type": "Point", "coordinates": [-73.93706999999998, 40.80133]}}, {"type": "Feature", "properties": {"name": "GOODWILL THRIFT SHOP", "address": "103 W 25 ST", "Borough": "Manhattan"}, "geometry": {"type": "Point", "coordinates": [-73.99217, 40.74447]}}, {"type": "Feature", "properties": {"name": "STAPLES", "address": "1885 HYLAN BLVD", "Borough": "Staten Island"}, "geometry": {"type": "Point", "coordinates": [-74.09621, 40.58382]}}, {"type": "Feature", "properties": {"name": "SALVATION ARMY THRIFT STORE", "address": "212 E 23 ST", "Borough": "Manhattan"}, "geometry": {"type": "Point", "coordinates": [-73.98244, 40.73837]}}, {"type": "Feature", "properties": {"name": "STAPLES", "address": "9130 VAN WYCK EXPY", "Borough": "Queens"}, "geometry": {"type": "Point", "coordinates": [-73.81506, 40.69894]}}, {"type": "Feature", "properties": {"name": "SALVATION ARMY THRIFT STORE", "address": "26 E 125 ST", "Borough": "Manhattan"}, "geometry": {"type": "Point", "coordinates": [-73.94136999999998, 40.80563]}}, {"type": "Feature", "properties": {"name": "BEST BUY", "address": "60 W 23 ST", "Borough": "Manhattan"}, "geometry": {"type": "Point", "coordinates": [-73.99239, 40.74236]}}, {"type": "Feature", "properties": {"name": "SALVATION ARMY THRIFT STORE", "address": "3718 NOSTRAND AVE", "Borough": "Brooklyn"}, "geometry": {"type": "Point", "coordinates": [-73.94079, 40.59273]}}, {"type": "Feature", "properties": {"name": "BEST BUY", "address": "369 GATEWAY DR", "Borough": "Brooklyn"}, "geometry": {"type": "Point", "coordinates": [-73.87317, 40.65134000000001]}}, {"type": "Feature", "properties": {"name": "GOODWILL THRIFT SHOP", "address": "157 W 72 ST", "Borough": "Manhattan"}, "geometry": {"type": "Point", "coordinates": [-73.98057, 40.77847]}}, {"type": "Feature", "properties": {"name": "SALVATION ARMY THRIFT STORE", "address": "3402 STEINWAY ST", "Borough": "Queens"}, "geometry": {"type": "Point", "coordinates": [-73.92123000000002, 40.75661]}}, {"type": "Feature", "properties": {"name": "STAPLES", "address": "9319 5 AVE", "Borough": "Brooklyn"}, "geometry": {"type": "Point", "coordinates": [-74.03003000000002, 40.61661]}}, {"type": "Feature", "properties": {"name": "SALVATION ARMY THRIFT STORE", "address": "112 4 AVE", "Borough": "Manhattan"}, "geometry": {"type": "Point", "coordinates": [-73.99033, 40.7326]}}, {"type": "Feature", "properties": {"name": "GOODWILL THRIFT SHOP", "address": "1704 2 AVE", "Borough": "Manhattan"}, "geometry": {"type": "Point", "coordinates": [-73.95029, 40.7793]}}, {"type": "Feature", "properties": {"name": "BEST BUY", "address": "13107 40 RD", "Borough": "Queens"}, "geometry": {"type": "Point", "coordinates": [-73.83569, 40.75753]}}, {"type": "Feature", "properties": {"name": "BEST BUY", "address": "402 E FORDHAM RD", "Borough": "Bronx"}, "geometry": {"type": "Point", "coordinates": [-73.89132, 40.86089000000001]}}, {"type": "Feature", "properties": {"name": "STAPLES", "address": "776 8 AVE", "Borough": "Manhattan"}, "geometry": {"type": "Point", "coordinates": [-73.98709000000002, 40.76048]}}, {"type": "Feature", "properties": {"name": "STAPLES", "address": "6040 FRESH POND RD", "Borough": "Queens"}, "geometry": {"type": "Point", "coordinates": [-73.90184, 40.71583]}}, {"type": "Feature", "properties": {"name": "SALVATION ARMY THRIFT STORE", "address": "22 QUINCY ST", "Borough": "Brooklyn"}, "geometry": {"type": "Point", "coordinates": [-73.96061999999998, 40.68555]}}, {"type": "Feature", "properties": {"name": "STAPLES", "address": "574 2 AVE", "Borough": "Manhattan"}, "geometry": {"type": "Point", "coordinates": [-73.97657, 40.74308]}}, {"type": "Feature", "properties": {"name": "BEST BUY", "address": "2795 RICHMOND AVE", "Borough": "Staten Island"}, "geometry": {"type": "Point", "coordinates": [-74.16744, 40.577]}}, {"type": "Feature", "properties": {"name": "BEST BUY", "address": "8923 BAY PKWY", "Borough": "Brooklyn"}, "geometry": {"type": "Point", "coordinates": [-73.99899, 40.59365]}}, {"type": "Feature", "properties": {"name": "SALVATION ARMY THRIFT STORE", "address": "6822 3 AVE", "Borough": "Brooklyn"}, "geometry": {"type": "Point", "coordinates": [-74.02606999999998, 40.6362]}}, {"type": "Feature", "properties": {"name": "SALVATION ARMY THRIFT STORE", "address": "176 BEDFORD AVE", "Borough": "Brooklyn"}, "geometry": {"type": "Point", "coordinates": [-73.95759, 40.71801]}}, {"type": "Feature", "properties": {"name": "STAPLES", "address": "1280 LEXINGTON AVE", "Borough": "Manhattan"}, "geometry": {"type": "Point", "coordinates": [-73.9557, 40.77989]}}, {"type": "Feature", "properties": {"name": "SALVATION ARMY THRIFT STORE", "address": "3911 61 ST", "Borough": "Queens"}, "geometry": {"type": "Point", "coordinates": [-73.90269, 40.74674]}}, {"type": "Feature", "properties": {"name": "GREENCHIP INC", "address": "19-36 38TH ST", "Borough": "Queens"}, "geometry": {"type": "Point", "coordinates": [-73.90105, 40.77805]}}, {"type": "Feature", "properties": {"name": "STAPLES", "address": "535 MORGAN AVE", "Borough": "Brooklyn"}, "geometry": {"type": "Point", "coordinates": [-73.93934, 40.72263]}}, {"type": "Feature", "properties": {"name": "GOODWILL THRIFT SHOP", "address": "512 181 ST", "Borough": "Manhattan"}, "geometry": {"type": "Point", "coordinates": [-73.932, 40.84829000000001]}}, {"type": "Feature", "properties": {"name": "STAPLES", "address": "2892 OCEAN AVE", "Borough": "Brooklyn"}, "geometry": {"type": "Point", "coordinates": [-73.95033000000002, 40.59087]}}, {"type": "Feature", "properties": {"name": "BEST BUY", "address": "1880 BROADWAY", "Borough": "Manhattan"}, "geometry": {"type": "Point", "coordinates": [-73.98159, 40.77008]}}, {"type": "Feature", "properties": {"name": "STAPLES", "address": "6135 JUNCTION BLVD", "Borough": "Queens"}, "geometry": {"type": "Point", "coordinates": [-73.86357, 40.73333]}}, {"type": "Feature", "properties": {"name": "BEST BUY", "address": "610 EXTERIOR ST", "Borough": "Bronx"}, "geometry": {"type": "Point", "coordinates": [-73.93011, 40.82194000000001]}}, {"type": "Feature", "properties": {"name": "STAPLES", "address": "330-340 BAYCHESTER AVE", "Borough": "Bronx"}, "geometry": {"type": "Point", "coordinates": [-73.82866999999997, 40.8677]}}, {"type": "Feature", "properties": {"name": "STAPLES", "address": "641 6TH AVE", "Borough": "Manhattan"}, "geometry": {"type": "Point", "coordinates": [-73.99483000000002, 40.74073]}}, {"type": "Feature", "properties": {"name": "STAPLES", "address": "500 8 AVE", "Borough": "Manhattan"}, "geometry": {"type": "Point", "coordinates": [-73.99245, 40.75304000000001]}}, {"type": "Feature", "properties": {"name": "STAPLES", "address": "1293-1311 BROADWAY", "Borough": "Manhattan"}, "geometry": {"type": "Point", "coordinates": [-73.9885, 40.74954]}}, {"type": "Feature", "properties": {"name": "STAPLES", "address": "10234 ATLANTIC AVE", "Borough": "Queens"}, "geometry": {"type": "Point", "coordinates": [-73.84133, 40.68979]}}, {"type": "Feature", "properties": {"name": "GOODWILL THRIFT SHOP", "address": "1100 FULTON ST", "Borough": "Brooklyn"}, "geometry": {"type": "Point", "coordinates": [-73.95699, 40.68112]}}, {"type": "Feature", "properties": {"name": "STAPLES", "address": "769 BROADWAY", "Borough": "Manhattan"}, "geometry": {"type": "Point", "coordinates": [-73.99235, 40.73114]}}, {"type": "Feature", "properties": {"name": "BEST BUY", "address": "1280 LEXINGTON AVE", "Borough": "Manhattan"}, "geometry": {"type": "Point", "coordinates": [-73.9557, 40.77989]}}, {"type": "Feature", "properties": {"name": "STAPLES", "address": "1520 FOREST AVE", "Borough": "Staten Island"}, "geometry": {"type": "Point", "coordinates": [-74.1392, 40.62386]}}, {"type": "Feature", "properties": {"name": "STAPLES", "address": "442 5 AVE", "Borough": "Manhattan"}, "geometry": {"type": "Point", "coordinates": [-73.98255999999998, 40.75191]}}, {"type": "Feature", "properties": {"name": "STAPLES", "address": "348 4 AVE", "Borough": "Brooklyn"}, "geometry": {"type": "Point", "coordinates": [-73.98687, 40.67418]}}, {"type": "Feature", "properties": {"name": "STAPLES", "address": "2040 WHITE PLAINS RD", "Borough": "Bronx"}, "geometry": {"type": "Point", "coordinates": [-73.86744, 40.85186]}}, {"type": "Feature", "properties": {"name": "GOODWILL THRIFT SHOP", "address": "2196 5 AVE", "Borough": "Manhattan"}, "geometry": {"type": "Point", "coordinates": [-73.93816, 40.8125]}}, {"type": "Feature", "properties": {"name": "GOODWILL OUTLET CENTER", "address": "4747 VAN DAM ST", "Borough": "Queens"}, "geometry": {"type": "Point", "coordinates": [-73.93378, 40.74153]}}, {"type": "Feature", "properties": {"name": "BEST BUY", "address": "622 BROADWAY", "Borough": "Manhattan"}, "geometry": {"type": "Point", "coordinates": [-73.99593, 40.72575]}}, {"type": "Feature", "properties": {"name": "STAPLES", "address": "5680 BROADWAY", "Borough": "Bronx"}, "geometry": {"type": "Point", "coordinates": [-73.90234, 40.88108]}}, {"type": "Feature", "properties": {"name": "STAPLES", "address": "2248 BROADWAY", "Borough": "Manhattan"}, "geometry": {"type": "Point", "coordinates": [-73.97881, 40.78482]}}, {"type": "Feature", "properties": {"name": "STAPLES", "address": "5812 QUEENS BLVD", "Borough": "Queens"}, "geometry": {"type": "Point", "coordinates": [-73.90701, 40.74119]}}, {"type": "Feature", "properties": {"name": "STAPLES", "address": "1949 STILLWELL", "Borough": "Brooklyn"}, "geometry": {"type": "Point", "coordinates": [-73.98528, 40.59901]}}, {"type": "Feature", "properties": {"name": "STAPLES", "address": "9030 METROPOLITAN AVE", "Borough": "Queens"}, "geometry": {"type": "Point", "coordinates": [-73.85812, 40.71161]}}, {"type": "Feature", "properties": {"name": "STAPLES", "address": "675 3 AVE", "Borough": "Manhattan"}, "geometry": {"type": "Point", "coordinates": [-73.97391, 40.7509]}}, {"type": "Feature", "properties": {"name": "BEST BUY", "address": "625 ATLANTIC AVE", "Borough": "Brooklyn"}, "geometry": {"type": "Point", "coordinates": [-73.97543, 40.68385]}}, {"type": "Feature", "properties": {"name": "SALVATION ARMY THRIFT STORE", "address": "208 8 AVE", "Borough": "Manhattan"}, "geometry": {"type": "Point", "coordinates": [-73.99924, 40.74368]}}, {"type": "Feature", "properties": {"name": "SALVATION ARMY THRIFT STORE", "address": "436 ATLANTIC AVE", "Borough": "Brooklyn"}, "geometry": {"type": "Point", "coordinates": [-73.9839, 40.68631]}}, {"type": "Feature", "properties": {"name": "BEST BUY", "address": "5102 AVE U", "Borough": "Brooklyn"}, "geometry": {"type": "Point", "coordinates": [-73.92161999999998, 40.60982]}}, {"type": "Feature", "properties": {"name": "SALVATION ARMY THRIFT STORE", "address": "1294 SOUTHERN BLVD", "Borough": "Bronx"}, "geometry": {"type": "Point", "coordinates": [-73.89146, 40.83061]}}, {"type": "Feature", "properties": {"name": "GOODWILL THRIFT SHOP", "address": "3236 STEINWAY ST", "Borough": "Queens"}, "geometry": {"type": "Point", "coordinates": [-73.91996, 40.75815]}}, {"type": "Feature", "properties": {"name": "STAPLES", "address": "13401 20 AVE", "Borough": "Queens"}, "geometry": {"type": "Point", "coordinates": [-73.83471999999998, 40.78213]}}, {"type": "Feature", "properties": {"name": "GOODWILL THRIFT SHOP", "address": "220 E 23 ST", "Borough": "Manhattan"}, "geometry": {"type": "Point", "coordinates": [-73.98228, 40.73827]}}, {"type": "Feature", "properties": {"name": "STAPLES", "address": "4320 BROADWAY", "Borough": "Manhattan"}, "geometry": {"type": "Point", "coordinates": [-73.93426, 40.85225]}}, {"type": "Feature", "properties": {"name": "STAPLES", "address": "16 E 34 ST", "Borough": "Manhattan"}, "geometry": {"type": "Point", "coordinates": [-73.98375, 40.74788]}}, {"type": "Feature", "properties": {"name": "LOWER EAST SIDE ECOLOGY CENTER\ufffd", "address": "469 PRESIDENT ST", "Borough": "Brooklyn"}, "geometry": {"type": "Point", "coordinates": [-73.98745, 40.67863]}}, {"type": "Feature", "properties": {"name": "STAPLES", "address": "1880 CONEY ISLAND AVE", "Borough": "Brooklyn"}, "geometry": {"type": "Point", "coordinates": [-73.96308, 40.6118]}}, {"type": "Feature", "properties": {"name": "SALVATION ARMY THRIFT STORE", "address": "2359 JEROME AVE", "Borough": "Bronx"}, "geometry": {"type": "Point", "coordinates": [-73.90308, 40.86036]}}, {"type": "Feature", "properties": {"name": "STAPLES", "address": "2441 31 ST", "Borough": "Queens"}, "geometry": {"type": "Point", "coordinates": [-73.91790999999998, 40.77025]}}, {"type": "Feature", "properties": {"name": "SALVATION ARMY THRIFT STORE", "address": "14815 ARCHER AVE", "Borough": "Queens"}, "geometry": {"type": "Point", "coordinates": [-73.80556, 40.70127]}}, {"type": "Feature", "properties": {"name": "STAPLES", "address": "1065 6 AVE", "Borough": "Manhattan"}, "geometry": {"type": "Point", "coordinates": [-73.98541, 40.75393]}}, {"type": "Feature", "properties": {"name": "BEST BUY", "address": "52 E 14 ST", "Borough": "Manhattan"}, "geometry": {"type": "Point", "coordinates": [-73.99043, 40.73441]}}, {"type": "Feature", "properties": {"name": "GREENCHIP INC", "address": "540 KINGSLAND AVE,", "Borough": "Brooklyn"}, "geometry": {"type": "Point", "coordinates": [-73.94371, 40.73396]}}, {"type": "Feature", "properties": {"name": "BEST BUY", "address": "8801 QUEENS BLVD", "Borough": "Queens"}, "geometry": {"type": "Point", "coordinates": [-73.87476, 40.73531]}}, {"type": "Feature", "properties": {"name": "SALVATION ARMY THRIFT STORE", "address": "268 W 96 ST", "Borough": "Manhattan"}, "geometry": {"type": "Point", "coordinates": [-73.97279, 40.79476]}}, {"type": "Feature", "properties": {"name": "STAPLES", "address": "105 W 125 ST", "Borough": "Manhattan"}, "geometry": {"type": "Point", "coordinates": [-73.94587, 40.80833]}}, {"type": "Feature", "properties": {"name": "STAPLES", "address": "390 6 AVE", "Borough": "Manhattan"}, "geometry": {"type": "Point", "coordinates": [-73.99951, 40.73318]}}, {"type": "Feature", "properties": {"name": "STAPLES", "address": "5-9 UNION SQUARE W", "Borough": "Manhattan"}, "geometry": {"type": "Point", "coordinates": [-73.99158, 40.73545]}}]}