{"type": "FeatureCollection", "features": [{"type": "Feature", "properties": {"name": "OPENING JULY 10: 170 Farmstand", "address": "Townsend Ave & 170 St, Bronx", "Borough": "Bronx"}, "geometry": {"type": "Point", "coordinates": [-73.91682, 40.83998]}}, {"type": "Feature", "properties": {"name": "Hudson Blvd Park", "address": "5 Hudson Blvd East", "Borough": "Manhattan"}, "geometry": {"type": "Point", "coordinates": [-74.00035, 40.75555]}}, {"type": "Feature", "properties": {"name": "Olivet Heavenly Harvest", "address": "97 Myrtle Avenue, Staten Island, NY", "Borough": "Staten Island"}, "geometry": {"type": "Point", "coordinates": [-74.11596999999998, 40.6302]}}, {"type": "Feature", "properties": {"name": "4th Avenue Presbyterian Church", "address": "6753 4th Avenue", "Borough": "Brooklyn"}, "geometry": {"type": "Point", "coordinates": [-74.0228, 40.63547]}}, {"type": "Feature", "properties": {"name": "Wyckoff Farmhouse Museum", "address": "5816 Clarendon Rd", "Borough": "Brooklyn"}, "geometry": {"type": "Point", "coordinates": [-73.92074000000002, 40.6444]}}, {"type": "Feature", "properties": {"name": "OPEN FOR SEASON: Fort Washington Greenmarket", "address": "168th Street at Fort Washington,New York,NY 10032", "Borough": "Manhattan"}, "geometry": {"type": "Point", "coordinates": [-73.94228000000003, 40.84216]}}, {"type": "Feature", "properties": {"name": "DeColores Community Yard", "address": "313 E 8th St", "Borough": "Manhattan"}, "geometry": {"type": "Point", "coordinates": [-73.97971, 40.72544]}}, {"type": "Feature", "properties": {"name": "Mary Mitchell Center", "address": "2007 Mapes Ave, Bronx 10460 at E 178th St", "Borough": "Bronx"}, "geometry": {"type": "Point", "coordinates": [-73.88741, 40.84494]}}, {"type": "Feature", "properties": {"name": "B'nai Jeshurun Community House", "address": "270 West 89th Street", "Borough": "Manhattan"}, "geometry": {"type": "Point", "coordinates": [-73.976, 40.79037]}}, {"type": "Feature", "properties": {"name": "Union Square Greenmarket", "address": "E 17th St & Union Square E, New York, NY", "Borough": "Manhattan"}, "geometry": {"type": "Point", "coordinates": [-73.99004000000002, 40.73682]}}, {"type": "Feature", "properties": {"name": "Lehman College", "address": "Lehman Quad near Shuster Hall", "Borough": "Bronx"}, "geometry": {"type": "Point", "coordinates": [-73.89407, 40.87559]}}, {"type": "Feature", "properties": {"name": "116th Street", "address": "116th & Lexington Ave - NW Corner", "Borough": "Manhattan"}, "geometry": {"type": "Point", "coordinates": [-73.94162, 40.79862]}}, {"type": "Feature", "properties": {"name": "Central Park North (110th St)", "address": "110th, St. Nicholas, & Malcolm X - NW Corner (Public Plaza)", "Borough": "Manhattan"}, "geometry": {"type": "Point", "coordinates": [-73.95246, 40.79824]}}, {"type": "Feature", "properties": {"name": "UCC Youth Farm", "address": "613 New Lots Avenue", "Borough": "Brooklyn"}, "geometry": {"type": "Point", "coordinates": [-73.88673, 40.66491]}}, {"type": "Feature", "properties": {"name": "Pleasant Village Community Garden", "address": "342 Pleasant Ave.", "Borough": "Manhattan"}, "geometry": {"type": "Point", "coordinates": [-73.93159, 40.79662]}}, {"type": "Feature", "properties": {"name": "Harlem Grown", "address": "118 W 134th St", "Borough": "Manhattan"}, "geometry": {"type": "Point", "coordinates": [-73.94282, 40.8138]}}, {"type": "Feature", "properties": {"name": "Garden of Love", "address": "302 West 116 Street", "Borough": "Manhattan"}, "geometry": {"type": "Point", "coordinates": [-73.95605, 40.8044]}}, {"type": "Feature", "properties": {"name": "Compost Demonstration Site at Snug Harbor Cultural Center & Botanical Garden", "address": "Compost Demonstration Site at Snug Harbor Cultural Center & Botanical Garden\r\n1000 Richmond Terrace", "Borough": "Staten Island"}, "geometry": {"type": "Point", "coordinates": [-74.10175, 40.64405]}}, {"type": "Feature", "properties": {"name": "Commuter Composting at 23rd Street C/E (Closed Thursday, 7/4 - Independence Day)", "address": "West 23rd Street and 8th Avenue -SW Corner, New York, NY 10011", "Borough": "Manhattan"}, "geometry": {"type": "Point", "coordinates": [-73.99849, 40.74529]}}, {"type": "Feature", "properties": {"name": "Red Hook Community Farm", "address": "Otsego Street and Beard Street", "Borough": "Brooklyn"}, "geometry": {"type": "Point", "coordinates": [-74.01101, 40.67223]}}, {"type": "Feature", "properties": {"name": "The Brotherhood/Sister Sol", "address": "512 West 143rd Street", "Borough": "Manhattan"}, "geometry": {"type": "Point", "coordinates": [-73.95, 40.8243]}}, {"type": "Feature", "properties": {"name": "Scholes Street Children's Garden", "address": "134 Scholes St, Brooklyn, NY 11206", "Borough": "Brooklyn"}, "geometry": {"type": "Point", "coordinates": [-73.94431, 40.70848]}}, {"type": "Feature", "properties": {"name": "PSS - Andrew Jackson Senior Center", "address": "765 Courtlandt Avenue", "Borough": "Bronx"}, "geometry": {"type": "Point", "coordinates": [-73.91826, 40.82233]}}, {"type": "Feature", "properties": {"name": "Tribeca Greenmarket", "address": "Greenwich Street at Chambers Street,New York,NY", "Borough": "Manhattan"}, "geometry": {"type": "Point", "coordinates": [-74.01096, 40.7163]}}, {"type": "Feature", "properties": {"name": "Mathews-Palmer Park", "address": "437 W 45 St", "Borough": "Manhattan"}, "geometry": {"type": "Point", "coordinates": [-73.99274, 40.76139000000001]}}, {"type": "Feature", "properties": {"name": "Iso Student Farm", "address": "514 Rockaway Avenue", "Borough": "Brooklyn"}, "geometry": {"type": "Point", "coordinates": [-73.91048, 40.66747]}}, {"type": "Feature", "properties": {"name": "CLOSED FOR SEASON: Peach Tree Garden", "address": "236 East 2nd Street", "Borough": "Manhattan"}, "geometry": {"type": "Point", "coordinates": [-73.98201999999998, 40.72168]}}, {"type": "Feature", "properties": {"name": "FACES NY at 116th", "address": "114 West 116th, 10026", "Borough": "Manhattan"}, "geometry": {"type": "Point", "coordinates": [-73.95074, 40.80216]}}, {"type": "Feature", "properties": {"name": "Commuter Composting at 1st Ave and 1st St.", "address": "First Avenue between Houston and First Street (West Side)", "Borough": "Manhattan"}, "geometry": {"type": "Point", "coordinates": [-73.98864, 40.72293]}}, {"type": "Feature", "properties": {"name": "The Point CDC", "address": "940 Garrison Avenue", "Borough": "Bronx"}, "geometry": {"type": "Point", "coordinates": [-73.89046, 40.81822]}}, {"type": "Feature", "properties": {"name": "Queens Botanical Garden Public Food Scrap Drop-Off", "address": "Parking Garden at QBG\r\n42-80 Crommelin Avenue, Flushing, NY 11355", "Borough": "Queens"}, "geometry": {"type": "Point", "coordinates": [-73.83, 40.75173]}}, {"type": "Feature", "properties": {"name": "OPEN FOR SEASON: Bryant Park", "address": "6th Avenue and 41st Sreet", "Borough": "Manhattan"}, "geometry": {"type": "Point", "coordinates": [-73.9846, 40.75418]}}, {"type": "Feature", "properties": {"name": "Abingdon Square Greenmarket", "address": "West 12 Street and 8 Avenue,New York,NY,10014", "Borough": "Manhattan"}, "geometry": {"type": "Point", "coordinates": [-74.00483, 40.73755]}}, {"type": "Feature", "properties": {"name": "Parkside", "address": "Ocean Ave & Parkside Ave, Brooklyn, NY 11226", "Borough": "Brooklyn"}, "geometry": {"type": "Point", "coordinates": [-73.96188000000002, 40.65488]}}, {"type": "Feature", "properties": {"name": "OPEN FOR SEASON: Pink Houses Community Farm", "address": "1257 Loring Avenue", "Borough": "Brooklyn"}, "geometry": {"type": "Point", "coordinates": [-73.86444, 40.66829]}}, {"type": "Feature", "properties": {"name": "Sunny Compost", "address": "38-63-38-1 50th St, Woodside, NY 11377", "Borough": "Queens"}, "geometry": {"type": "Point", "coordinates": [-73.91376, 40.75005]}}, {"type": "Feature", "properties": {"name": "East River Park Compost Yard", "address": "East River Park Compost Park (coordinates: 40.711055, -73.978847)", "Borough": "Manhattan"}, "geometry": {"type": "Point", "coordinates": [-73.97903000000002, 40.71099]}}, {"type": "Feature", "properties": {"name": "Commuter Composting at Grand Ave Newtown M/R", "address": "86-55 Broadway, Queens, NY 11373", "Borough": "Queens"}, "geometry": {"type": "Point", "coordinates": [-73.87709, 40.73715]}}, {"type": "Feature", "properties": {"name": "Bronx Cooperative Development Initiative", "address": "2431 Morris Ave", "Borough": "Bronx"}, "geometry": {"type": "Point", "coordinates": [-73.90024, 40.86143]}}, {"type": "Feature", "properties": {"name": "Mobilization for Change Community Garden", "address": "955 Columbus Ave", "Borough": "Manhattan"}, "geometry": {"type": "Point", "coordinates": [-73.96218, 40.79971]}}, {"type": "Feature", "properties": {"name": "161st Street - Yankee Stadium", "address": "161st, River Ave - NE Corner", "Borough": "Bronx"}, "geometry": {"type": "Point", "coordinates": [-73.92593000000002, 40.82781]}}, {"type": "Feature", "properties": {"name": "Kelly Street Garden", "address": "924 Kelly Street", "Borough": "Bronx"}, "geometry": {"type": "Point", "coordinates": [-73.89573, 40.8201]}}, {"type": "Feature", "properties": {"name": "OPEN FOR SEASON: Morris- Jumel Community Garden", "address": "455-457 West 162nd Street", "Borough": "Manhattan"}, "geometry": {"type": "Point", "coordinates": [-73.93914000000002, 40.83578]}}, {"type": "Feature", "properties": {"name": "OPENING JUNE 25: Poe Park Greenmarket", "address": "E. 192 St. btwn Grand Concourse and Valentine, Bronx, NY, 10468", "Borough": "Bronx"}, "geometry": {"type": "Point", "coordinates": [-73.8958, 40.86422]}}, {"type": "Feature", "properties": {"name": "Bay Ridge Greenmarket", "address": "3rd Ave & 95th Street, Brooklyn, NY 11209", "Borough": "Brooklyn"}, "geometry": {"type": "Point", "coordinates": [-74.03359, 40.61728]}}, {"type": "Feature", "properties": {"name": "Hudson River Park's Pier 76 at W. 34th St.", "address": "Pier 76 at 34th Street and 12th Ave in Hudson River Park's Compost Center", "Borough": "Manhattan"}, "geometry": {"type": "Point", "coordinates": [-74.00493, 40.75702]}}, {"type": "Feature", "properties": {"name": "OPEN FOR SEASON: Essex Community Garden", "address": "3030 Fulton Street", "Borough": "Brooklyn"}, "geometry": {"type": "Point", "coordinates": [-73.88298, 40.68026]}}, {"type": "Feature", "properties": {"name": "Hudson River Park's Pier 51 at Horatio St.", "address": "Pier 51 at Horatio St. near comfort station", "Borough": "Manhattan"}, "geometry": {"type": "Point", "coordinates": [-74.00961, 40.73874]}}, {"type": "Feature", "properties": {"name": "Lydia's Magic Garden", "address": "1665 Park Avenue, Manhattan 10035\r\nbetween 117th and 118th Streets", "Borough": "Manhattan"}, "geometry": {"type": "Point", "coordinates": [-73.94221, 40.80008]}}, {"type": "Feature", "properties": {"name": "149th St - Grand Concourse", "address": "Grand Concourse, 149th Street - SE Corner", "Borough": "Bronx"}, "geometry": {"type": "Point", "coordinates": [-73.92730999999998, 40.81856]}}, {"type": "Feature", "properties": {"name": "William B. Washington Memorial Garden", "address": "321 West 126th Street", "Borough": "Manhattan"}, "geometry": {"type": "Point", "coordinates": [-73.95152, 40.8114]}}, {"type": "Feature", "properties": {"name": "OPEN FOR SEASON: Staten Island Mall Greenmarket", "address": "Staten Island Mall, Marsh Ave & Ring Rd, Staten Island, NY 10314", "Borough": "Staten Island"}, "geometry": {"type": "Point", "coordinates": [-74.16125, 40.58381]}}, {"type": "Feature", "properties": {"name": "Brooklyn Borough Hall Greenmarket (Closed Thursday, 7/4 - Independence Day)", "address": "Court St & Montague St, Brooklyn, NY 11201", "Borough": "Brooklyn"}, "geometry": {"type": "Point", "coordinates": [-73.99046, 40.69372]}}, {"type": "Feature", "properties": {"name": "7 Ave B/Q (Closed Wednesday, 7/3 - Independence Day)", "address": "Park Pl and Carlton Ave", "Borough": "Brooklyn"}, "geometry": {"type": "Point", "coordinates": [-73.97235, 40.67745]}}, {"type": "Feature", "properties": {"name": "OPENING JUNE 26: Bainbridge Avenue Community Garden", "address": "2980 Bainbridge Avenue, Bronx, NY 10458", "Borough": "Bronx"}, "geometry": {"type": "Point", "coordinates": [-73.88398000000002, 40.87093]}}, {"type": "Feature", "properties": {"name": "Christopher Street", "address": "7th Avenue and Christopher St - SW Corner", "Borough": "Manhattan"}, "geometry": {"type": "Point", "coordinates": [-74.00278, 40.73363]}}, {"type": "Feature", "properties": {"name": "Bay View Houses Farm", "address": "5955 Shore Parkway", "Borough": "Brooklyn"}, "geometry": {"type": "Point", "coordinates": [-73.88597, 40.63334]}}, {"type": "Feature", "properties": {"name": "Sunnyside Greenmarket", "address": "Skillman Ave at 43rd St,Queens,NY,11104", "Borough": "Queens"}, "geometry": {"type": "Point", "coordinates": [-73.9208, 40.74689]}}, {"type": "Feature", "properties": {"name": "FACES NY at 115th", "address": "121 West 115th, 10026", "Borough": "Manhattan"}, "geometry": {"type": "Point", "coordinates": [-73.95099, 40.80194]}}, {"type": "Feature", "properties": {"name": "OPENING JULY 1: Green Oasis Garden", "address": "368 East 8 Street, NY 10009", "Borough": "Manhattan"}, "geometry": {"type": "Point", "coordinates": [-73.97742, 40.72421]}}, {"type": "Feature", "properties": {"name": "CLOSING JULY 8: Junkluggers", "address": "33-56 11th Street, Queens", "Borough": "Queens"}, "geometry": {"type": "Point", "coordinates": [-73.93751999999998, 40.76557]}}, {"type": "Feature", "properties": {"name": "The Herb Garden", "address": "180 East 111th Street", "Borough": "Manhattan"}, "geometry": {"type": "Point", "coordinates": [-73.9431, 40.79483]}}, {"type": "Feature", "properties": {"name": "Hudson River Park's 14th Street Park at 10th Ave.", "address": "14th Street Park at southwest corner of 15th St. and 10th Ave", "Borough": "Manhattan"}, "geometry": {"type": "Point", "coordinates": [-74.0077, 40.74283]}}, {"type": "Feature", "properties": {"name": "East 4th Street Community Garden", "address": "173 East 4th Street", "Borough": "Brooklyn"}, "geometry": {"type": "Point", "coordinates": [-73.9771, 40.64821]}}, {"type": "Feature", "properties": {"name": "St. Augustine Food Pantry", "address": "1168 Franklin Ave", "Borough": "Bronx"}, "geometry": {"type": "Point", "coordinates": [-73.90429, 40.82907]}}, {"type": "Feature", "properties": {"name": "97th Street Greenmarket", "address": "97th St between Columbus & Amsterdam, Manhattan", "Borough": "Manhattan"}, "geometry": {"type": "Point", "coordinates": [-73.96701999999998, 40.79356]}}, {"type": "Feature", "properties": {"name": "CLOSED FOR SEASON: Carmen Pabon del Amanecer Community Garden", "address": "115 Avenue C", "Borough": "Manhattan"}, "geometry": {"type": "Point", "coordinates": [-73.97887, 40.72445]}}, {"type": "Feature", "properties": {"name": "OPENING JULY 7: La Plaza Cultural Community Garden", "address": "674 East 9th Street", "Borough": "Manhattan"}, "geometry": {"type": "Point", "coordinates": [-73.97861999999998, 40.72541]}}, {"type": "Feature", "properties": {"name": "OPEN FOR SEASON: Brooklyn Grange", "address": "37-19 Northern Blvd Roof", "Borough": "Queens"}, "geometry": {"type": "Point", "coordinates": [-73.92532, 40.752]}}, {"type": "Feature", "properties": {"name": "Astoria Library", "address": "14-01 Astoria Blvd, Astoria, NY 11102", "Borough": "Queens"}, "geometry": {"type": "Point", "coordinates": [-73.92874, 40.77238]}}, {"type": "Feature", "properties": {"name": "Forest Hills Greenmarket", "address": "South side of Queens Blvd at 70th Avenue, Queens", "Borough": "Queens"}, "geometry": {"type": "Point", "coordinates": [-73.84648, 40.72186]}}, {"type": "Feature", "properties": {"name": "Prospect Heights Community Farm", "address": "252 St. Marks Ave.", "Borough": "Brooklyn"}, "geometry": {"type": "Point", "coordinates": [-73.96774, 40.67809000000001]}}, {"type": "Feature", "properties": {"name": "Ditmars Blvd N/W Commuter Drop-Off", "address": "22-75 31st St, Astoria, NY 11102 (Closest approximation, there is no address for this stretch of sidewalk)", "Borough": "Queens"}, "geometry": {"type": "Point", "coordinates": [-73.91251, 40.77476]}}, {"type": "Feature", "properties": {"name": "Hellgate Farm", "address": "14-33 30th Drive", "Borough": "Queens"}, "geometry": {"type": "Point", "coordinates": [-73.92995, 40.76889]}}, {"type": "Feature", "properties": {"name": "McCarren Park Greenmarket", "address": "Union Ave at Driggs Ave,Brooklyn,NY,11222", "Borough": "Brooklyn"}, "geometry": {"type": "Point", "coordinates": [-73.95271, 40.72045]}}, {"type": "Feature", "properties": {"name": "Jackson Heights Greenmarket", "address": "34th Ave b/t 79th & 80th Sts", "Borough": "Queens"}, "geometry": {"type": "Point", "coordinates": [-73.88783000000002, 40.75343]}}, {"type": "Feature", "properties": {"name": "Bowling Green Greenmarket", "address": "Broadway at Battery Place,New York,NY, 10004", "Borough": "Manhattan"}, "geometry": {"type": "Point", "coordinates": [-74.01353, 40.70472]}}, {"type": "Feature", "properties": {"name": "Cortelyou Greenmarket", "address": "Cortelyou Rd at Rugby Rd, Brooklyn, NY, 11226", "Borough": "Brooklyn"}, "geometry": {"type": "Point", "coordinates": [-73.9653, 40.64082]}}, {"type": "Feature", "properties": {"name": "Imani Garden", "address": "1680 Pacific Street", "Borough": "Brooklyn"}, "geometry": {"type": "Point", "coordinates": [-73.93298, 40.67651]}}, {"type": "Feature", "properties": {"name": "Roosevelt Island under the Helix", "address": "Main Street under the Helix", "Borough": "Manhattan"}, "geometry": {"type": "Point", "coordinates": [-73.94736, 40.76379]}}, {"type": "Feature", "properties": {"name": "Hudson River Park's Pier 40 at W. Houston St.", "address": "Pier 40 at Houston St. near dog park", "Borough": "Manhattan"}, "geometry": {"type": "Point", "coordinates": [-74.01066999999998, 40.72911]}}, {"type": "Feature", "properties": {"name": "OPEN FOR SEASON: Target Bronx Community Garden", "address": "1025 Anderson Avenue", "Borough": "Bronx"}, "geometry": {"type": "Point", "coordinates": [-73.92702, 40.83281]}}, {"type": "Feature", "properties": {"name": "Inwood Greenmarket", "address": "Isham St at Cooper,New York,NY, 10034", "Borough": "Manhattan"}, "geometry": {"type": "Point", "coordinates": [-73.92031999999998, 40.869]}}, {"type": "Feature", "properties": {"name": "181st Street", "address": "Fort Washington Ave btw. 183rd & 185th - W (Bennett Park Entrance)", "Borough": "Manhattan"}, "geometry": {"type": "Point", "coordinates": [-73.93782, 40.85213]}}, {"type": "Feature", "properties": {"name": "Mosholu Preservation", "address": "3400 Reservoir Oval East", "Borough": "Bronx"}, "geometry": {"type": "Point", "coordinates": [-73.87569, 40.879]}}, {"type": "Feature", "properties": {"name": "145th Street", "address": "145th & Edgecombe Ave - NE Corner (Jackie Robinson Park Entrance)", "Borough": "Manhattan"}, "geometry": {"type": "Point", "coordinates": [-73.94385, 40.82365]}}, {"type": "Feature", "properties": {"name": "West Village (Closed Thursday, 7/4 - Independence Day)", "address": "6th Avenue and Waverly Place - SE Corner", "Borough": "Manhattan"}, "geometry": {"type": "Point", "coordinates": [-74.00007, 40.73293]}}, {"type": "Feature", "properties": {"name": "Bushwick Grows! Community Garden", "address": "1474 Gates Ave.", "Borough": "Brooklyn"}, "geometry": {"type": "Point", "coordinates": [-73.9137, 40.69761]}}, {"type": "Feature", "properties": {"name": "Dyckman Street", "address": "Broadway, Riverside Drive, Dyckman Street (Anne Loftus Playground/Fort Tyron Park Entrance)", "Borough": "Manhattan"}, "geometry": {"type": "Point", "coordinates": [-73.92841, 40.86506]}}, {"type": "Feature", "properties": {"name": "SoHo Broadway and Spring Street", "address": "Broadway at Spring Street", "Borough": "Manhattan"}, "geometry": {"type": "Point", "coordinates": [-73.99880999999998, 40.72302]}}, {"type": "Feature", "properties": {"name": "Queens County Farm Museum", "address": "73-50 Little Neck Parkway", "Borough": "Queens"}, "geometry": {"type": "Point", "coordinates": [-73.7241, 40.74761]}}, {"type": "Feature", "properties": {"name": "El Sol Brilliante- Children's Garden", "address": "544 East 12th St.", "Borough": "Manhattan"}, "geometry": {"type": "Point", "coordinates": [-73.97945, 40.72811]}}, {"type": "Feature", "properties": {"name": "OPENING JUNE 14: Fordham Plaza Greenmarket", "address": "E Fordham Rd btw Webster Ave & Third Ave - S", "Borough": "Bronx"}, "geometry": {"type": "Point", "coordinates": [-73.89138, 40.8617]}}, {"type": "Feature", "properties": {"name": "Commuter Composting at East Broadway & Rutgers Street", "address": "East Broadway & Rutgers Street (SE corner), Manhattan", "Borough": "Manhattan"}, "geometry": {"type": "Point", "coordinates": [-73.99019, 40.71405]}}, {"type": "Feature", "properties": {"name": "Grand Army Plaza Greenmarket", "address": "Prospect Park West & Plaza Street West, Brooklyn, 11238", "Borough": "Brooklyn"}, "geometry": {"type": "Point", "coordinates": [-73.96987, 40.67256]}}, {"type": "Feature", "properties": {"name": "Commuter Composting at Kew Gardens E/F", "address": "Kew Gardens Road and 81st. Avenue, Kew Gardens 11415", "Borough": "Queens"}, "geometry": {"type": "Point", "coordinates": [-73.82981, 40.71304]}}, {"type": "Feature", "properties": {"name": "Columbia University Greenmarket (Closed Thursday, 7/4 - Independence Day)", "address": "Broadway at West 114 St,New York,NY,10025", "Borough": "Manhattan"}, "geometry": {"type": "Point", "coordinates": [-73.96485, 40.80671]}}, {"type": "Feature", "properties": {"name": "Queens Library at Broadway", "address": "40-20 Broadway, Long Island City, NY, 11103", "Borough": "Queens"}, "geometry": {"type": "Point", "coordinates": [-73.91861999999998, 40.75848]}}, {"type": "Feature", "properties": {"name": "OPENING JUNE 27: 175th Street Greenmarket (Closed Thursday, 7/4 - Independence Day)", "address": "175th Street between Wadsworth Avenue and Broadway, New York, NY", "Borough": "Manhattan"}, "geometry": {"type": "Point", "coordinates": [-73.93781, 40.84595]}}, {"type": "Feature", "properties": {"name": "LES Ecology Center Garden", "address": "213 E. 7th St", "Borough": "Manhattan"}, "geometry": {"type": "Point", "coordinates": [-73.97964, 40.72465]}}, {"type": "Feature", "properties": {"name": "Carroll Gardens Greenmarket", "address": "Carroll St. btwn Smith & Court Sts, Brooklyn, NY 11231", "Borough": "Brooklyn"}, "geometry": {"type": "Point", "coordinates": [-73.99465, 40.68054]}}, {"type": "Feature", "properties": {"name": "Swindler Cove", "address": "3703 10th Avenue", "Borough": "Manhattan"}, "geometry": {"type": "Point", "coordinates": [-73.92226, 40.8577]}}, {"type": "Feature", "properties": {"name": "OPEN FOR SEASON: The Compost Collective", "address": "73-24 Yellowstone Blvd.", "Borough": "Queens"}, "geometry": {"type": "Point", "coordinates": [-73.85765, 40.71698]}}, {"type": "Feature", "properties": {"name": "Tucker Square Greenmarket (Closed Thursday, 7/4 - Independence Day)", "address": "Columbus Ave & W 66th St, New York, NY 10023", "Borough": "Manhattan"}, "geometry": {"type": "Point", "coordinates": [-73.9819, 40.77372]}}, {"type": "Feature", "properties": {"name": "Project H.O.P.E. Fresh Food Box", "address": "854 Hunts Point Ave", "Borough": "Bronx"}, "geometry": {"type": "Point", "coordinates": [-73.88842, 40.81809000000001]}}, {"type": "Feature", "properties": {"name": "Commuter Composting at Broadway N/W", "address": "32-15 31st St, Astoria, NY 11106 ?", "Borough": "Queens"}, "geometry": {"type": "Point", "coordinates": [-73.92551, 40.76157]}}, {"type": "Feature", "properties": {"name": "OPEN FOR SEASON: M'Finda Kalunga Garden", "address": "Rivington and Forsyth", "Borough": "Manhattan"}, "geometry": {"type": "Point", "coordinates": [-73.9915, 40.72103]}}, {"type": "Feature", "properties": {"name": "Creative Little Garden", "address": "530 East 6th Street", "Borough": "Manhattan"}, "geometry": {"type": "Point", "coordinates": [-73.98259, 40.72465]}}, {"type": "Feature", "properties": {"name": "Big Reuse Brooklyn", "address": "One 12th St, Brooklyn, NY, 11215", "Borough": "Brooklyn"}, "geometry": {"type": "Point", "coordinates": [-73.99671, 40.67172]}}, {"type": "Feature", "properties": {"name": "OPEN FOR SEASON: Phoenix Community Garden", "address": "20 Somers Street", "Borough": "Brooklyn"}, "geometry": {"type": "Point", "coordinates": [-73.91161, 40.67852]}}, {"type": "Feature", "properties": {"name": "96th Street", "address": "96th Street & Lexington Ave - SE Corner (Samuel Seabury Playground)", "Borough": "Manhattan"}, "geometry": {"type": "Point", "coordinates": [-73.95093, 40.78587]}}, {"type": "Feature", "properties": {"name": "OPEN FOR SEASON: Queens Botanical Garden DTE Farmers Market", "address": "82 Dahlia Avenue", "Borough": "Queens"}, "geometry": {"type": "Point", "coordinates": [-73.82734, 40.75142]}}, {"type": "Feature", "properties": {"name": "137th Street - City College", "address": "137th St & Broadway - SW (Montefiore Square)", "Borough": "Manhattan"}, "geometry": {"type": "Point", "coordinates": [-73.95413, 40.82138]}}, {"type": "Feature", "properties": {"name": "OPEN FOR SEASON: Bronx Borough Hall Greenmarket", "address": "Grand Concourse and 161 St, Bronx, NY, 10451", "Borough": "Bronx"}, "geometry": {"type": "Point", "coordinates": [-73.92281, 40.82737]}}, {"type": "Feature", "properties": {"name": "Brook Park", "address": "494 East 141 St.", "Borough": "Bronx"}, "geometry": {"type": "Point", "coordinates": [-73.9187, 40.8096]}}, {"type": "Feature", "properties": {"name": "OPEN FOR SEASON: Earth Matter, Compost Learning Center", "address": "758 Enright Rd, New York, NY 10004", "Borough": "Manhattan"}, "geometry": {"type": "Point", "coordinates": [-74.02043, 40.68695]}}, {"type": "Feature", "properties": {"name": "14th Street Y", "address": "344 E 14th Street", "Borough": "Manhattan"}, "geometry": {"type": "Point", "coordinates": [-73.98336, 40.73121]}}, {"type": "Feature", "properties": {"name": "Fort Greene Greenmarket", "address": "Washington Park between Willoughby Avenue & Dekalb Avenue, Brooklyn, NY 11201", "Borough": "Brooklyn"}, "geometry": {"type": "Point", "coordinates": [-73.97312, 40.68962]}}, {"type": "Feature", "properties": {"name": "Meg's Community Garden @ Dewitt Clinton High School Campus", "address": "100 West Mosholu Parkway", "Borough": "Bronx"}, "geometry": {"type": "Point", "coordinates": [-73.88664, 40.88145]}}, {"type": "Feature", "properties": {"name": "Hudson Square", "address": "6th Avenue & Spring Street -NE Corner", "Borough": "Manhattan"}, "geometry": {"type": "Point", "coordinates": [-74.00448, 40.72562]}}, {"type": "Feature", "properties": {"name": "Hudson River Park's Pier 25 at N. Moore St.", "address": "Pier 25 at N. Moore St. near kid's playground", "Borough": "Manhattan"}, "geometry": {"type": "Point", "coordinates": [-74.01217, 40.72032]}}, {"type": "Feature", "properties": {"name": "We Stay/Nos Quedamos", "address": "754 Melrose Avenue", "Borough": "Bronx"}, "geometry": {"type": "Point", "coordinates": [-73.91493, 40.82114]}}, {"type": "Feature", "properties": {"name": "Dorothy K. McGowan Memorial Garden", "address": "513 West 158th Street", "Borough": "Manhattan"}, "geometry": {"type": "Point", "coordinates": [-73.94226, 40.83402]}}, {"type": "Feature", "properties": {"name": "Socrates Sculpture Park", "address": "Broadway & Vernon Blvd, Queens, NY 11106", "Borough": "Queens"}, "geometry": {"type": "Point", "coordinates": [-73.93623000000002, 40.76777]}}, {"type": "Feature", "properties": {"name": "Edgemere Farm", "address": "385 Beach 45th St", "Borough": "Queens"}, "geometry": {"type": "Point", "coordinates": [-73.77673, 40.59537]}}, {"type": "Feature", "properties": {"name": "Brook Ave", "address": "138th, Brook Ave - NW Corner", "Borough": "Bronx"}, "geometry": {"type": "Point", "coordinates": [-73.91923, 40.80756]}}, {"type": "Feature", "properties": {"name": "JH Scraps", "address": "35-20 69th Street", "Borough": "Queens"}, "geometry": {"type": "Point", "coordinates": [-73.8963, 40.74986]}}, {"type": "Feature", "properties": {"name": "OPENING JUNE 21: Corona Greenmarket", "address": "Corona Plaza, Roosevelt Ave at 103 Street, Queens", "Borough": "Queens"}, "geometry": {"type": "Point", "coordinates": [-73.86272, 40.74987]}}, {"type": "Feature", "properties": {"name": "Church of the Mediator/La Iglesia El Mediador", "address": "W 231 St & Kingsbridge Ave", "Borough": "Bronx"}, "geometry": {"type": "Point", "coordinates": [-73.90658, 40.87981]}}, {"type": "Feature", "properties": {"name": "Commuter Composting at Grand Street & Clinton Street", "address": "Grand Street & Clinton Street (SW corner), Manhattan", "Borough": "Manhattan"}, "geometry": {"type": "Point", "coordinates": [-73.98671999999998, 40.71595]}}, {"type": "Feature", "properties": {"name": "Commuter Composting at Briarwood E/F", "address": "Briarwood E/F Subway Station Entrance (North Side of Queens Boulevard)", "Borough": "Queens"}, "geometry": {"type": "Point", "coordinates": [-73.81996, 40.70999000000001]}}, {"type": "Feature", "properties": {"name": "Irving Square Park", "address": "Corner of Halsey and Knickerbocker", "Borough": "Brooklyn"}, "geometry": {"type": "Point", "coordinates": [-73.9083, 40.69299]}}, {"type": "Feature", "properties": {"name": "St. George Greenmarket", "address": "St Marks Pl & Hyatt St\r\nStaten Island, NY 10301", "Borough": "Staten Island"}, "geometry": {"type": "Point", "coordinates": [-74.0779, 40.64159]}}, {"type": "Feature", "properties": {"name": "Franklin Avenue 2/3/4/5 (Closed Wednesday, 7/3 - Independence Day)", "address": "Franklin Avenue & Eastern Parkway", "Borough": "Brooklyn"}, "geometry": {"type": "Point", "coordinates": [-73.95798, 40.67066]}}, {"type": "Feature", "properties": {"name": "Commuter Composting at Vernon Jackson 7", "address": "Vernon Blvd & 50th Ave, Long Island City, NY 11101 ?", "Borough": "Queens"}, "geometry": {"type": "Point", "coordinates": [-73.95405, 40.74273]}}, {"type": "Feature", "properties": {"name": "82nd St Greenmarket [St. Stevens]", "address": "82nd Street between 1st and York Avenues", "Borough": "Manhattan"}, "geometry": {"type": "Point", "coordinates": [-73.95125999999998, 40.77429]}}, {"type": "Feature", "properties": {"name": "OPEN FOR SEASON: 57th St Greenmarket", "address": "10th Avenue & West 57th Street", "Borough": "Manhattan"}, "geometry": {"type": "Point", "coordinates": [-73.98855999999998, 40.76912]}}, {"type": "Feature", "properties": {"name": "OPEN FOR SEASON: Governors Islands \ufffdZero Waste Stations\ufffd", "address": "Several locations throughout Governors Island", "Borough": "Manhattan"}, "geometry": {"type": "Point", "coordinates": [-74.02043, 40.68695]}}, {"type": "Feature", "properties": {"name": "Cathedral Parkway (110th St)", "address": "110th & Central Park West - SW Corner", "Borough": "Manhattan"}, "geometry": {"type": "Point", "coordinates": [-73.95834, 40.80037]}}, {"type": "Feature", "properties": {"name": "Mt. Lebanon Fresh Food Box", "address": "462 Halsey Street", "Borough": "Brooklyn"}, "geometry": {"type": "Point", "coordinates": [-73.93566, 40.6832]}}, {"type": "Feature", "properties": {"name": "Saint Peter's Church", "address": "346 West 20th Street", "Borough": "Manhattan"}, "geometry": {"type": "Point", "coordinates": [-74.00201, 40.74405]}}, {"type": "Feature", "properties": {"name": "Commuter Composting at 21st Street F train", "address": "NW Corner of 21st street at 41st Ave", "Borough": "Queens"}, "geometry": {"type": "Point", "coordinates": [-73.94243, 40.754]}}, {"type": "Feature", "properties": {"name": "Praxis Housing", "address": "4339 White Plains Road", "Borough": "Bronx"}, "geometry": {"type": "Point", "coordinates": [-73.85594, 40.89683]}}, {"type": "Feature", "properties": {"name": "Dag Hammarskjold Plaza Greenmarket (Closed Thursday, 7/4 - Independence Day)", "address": "East 47 St at 2 Ave,New York,NY, 10017", "Borough": "Manhattan"}, "geometry": {"type": "Point", "coordinates": [-73.96989, 40.753]}}, {"type": "Feature", "properties": {"name": "OPEN FOR SEASON: Rockaway Waterfront Alliance R.I.S.E.", "address": "5803 Rockaway Beach Blvd.", "Borough": "Queens"}, "geometry": {"type": "Point", "coordinates": [-73.78826, 40.59188]}}, {"type": "Feature", "properties": {"name": "Lenox Hill Neighborhood House Fresh Food Box", "address": "1st Avenue Between 70th St and 71st St", "Borough": "Manhattan"}, "geometry": {"type": "Point", "coordinates": [-73.95695, 40.76649000000001]}}, {"type": "Feature", "properties": {"name": "Park Church Co-op", "address": "Park Church Co-op, 129 Russell Street Brooklyn", "Borough": "Brooklyn"}, "geometry": {"type": "Point", "coordinates": [-73.94466, 40.72482]}}, {"type": "Feature", "properties": {"name": "127 Street & Malcolm X Food Scrap Drop Off Site", "address": "77 West 127th Street between Malcolm X Boulevard and 5th Ave", "Borough": "Manhattan"}, "geometry": {"type": "Point", "coordinates": [-73.94378, 40.80899]}}, {"type": "Feature", "properties": {"name": "OPEN FOR SEASON: Parkchester Greenmarket", "address": "White Plains Rd & Westchester Ave, Bronx, NY 10472", "Borough": "Bronx"}, "geometry": {"type": "Point", "coordinates": [-73.86192, 40.83337]}}, {"type": "Feature", "properties": {"name": "Smiling Hogshead Ranch", "address": "25-30 Skillman Avenue", "Borough": "Queens"}, "geometry": {"type": "Point", "coordinates": [-73.94308000000002, 40.74318]}}, {"type": "Feature", "properties": {"name": "St. James Compost", "address": "86-02 Broadway", "Borough": "Queens"}, "geometry": {"type": "Point", "coordinates": [-73.87782, 40.73834]}}, {"type": "Feature", "properties": {"name": "Commuter Composting at 63rd Dr. M/R", "address": "96-14 Queens Blvd, Rego Park, NY 11374", "Borough": "Queens"}, "geometry": {"type": "Point", "coordinates": [-73.8622, 40.72961]}}, {"type": "Feature", "properties": {"name": "BronxWorks Fresh Food Box", "address": "1130 Grand Concourse", "Borough": "Bronx"}, "geometry": {"type": "Point", "coordinates": [-73.91875, 40.83261]}}, {"type": "Feature", "properties": {"name": "157th Street", "address": "157th, Broadway, Riverside Drive (Ilka Tanya Payan Park)", "Borough": "Manhattan"}, "geometry": {"type": "Point", "coordinates": [-73.94488, 40.83406]}}, {"type": "Feature", "properties": {"name": "Uptown Grand Central Fresh Food Box", "address": "125th Street at Park Avenue, outside the Metro-North Station", "Borough": "Manhattan"}, "geometry": {"type": "Point", "coordinates": [-73.93903, 40.80506]}}, {"type": "Feature", "properties": {"name": "Hudson River Park's Chelsea Waterside Park at W. 23rd St.", "address": "Chelsea Waterside Park at 23rd St. and 11th Ave entrance", "Borough": "Manhattan"}, "geometry": {"type": "Point", "coordinates": [-74.00703, 40.74889]}}, {"type": "Feature", "properties": {"name": "Hudson River Park's Pier 84 at W. 44th St.", "address": "Pier 84 at W. 44th St. near dog park", "Borough": "Manhattan"}, "geometry": {"type": "Point", "coordinates": [-73.99965, 40.76311]}}, {"type": "Feature", "properties": {"name": "Tompkins Square Greenmarket", "address": "E 7th St & Avenue A, New York, NY 10009", "Borough": "Manhattan"}, "geometry": {"type": "Point", "coordinates": [-73.98354, 40.72606]}}, {"type": "Feature", "properties": {"name": "East Side Outside Community Garden", "address": "415 East 11th St.", "Borough": "Manhattan"}, "geometry": {"type": "Point", "coordinates": [-73.98302, 40.72939]}}, {"type": "Feature", "properties": {"name": "Church of the Holy Apostles", "address": "296 Ninth Avenue", "Borough": "Manhattan"}, "geometry": {"type": "Point", "coordinates": [-73.99882, 40.74927]}}, {"type": "Feature", "properties": {"name": "OPENING JULY 10: Learn it, Grow it, Eat it Youthmarket", "address": "McKinley Sq. at 169th St. & Boston Road", "Borough": "Bronx"}, "geometry": {"type": "Point", "coordinates": [-73.90069, 40.83114000000001]}}, {"type": "Feature", "properties": {"name": "OPENING JUNE 23: 92nd Street Greenmarket", "address": "1st Ave between 92nd and 93rd St,New York,NY,10128", "Borough": "Manhattan"}, "geometry": {"type": "Point", "coordinates": [-73.94624, 40.78098]}}, {"type": "Feature", "properties": {"name": "Judson Memorial Church", "address": "243 Thompson Street", "Borough": "Manhattan"}, "geometry": {"type": "Point", "coordinates": [-73.99840999999998, 40.73021]}}, {"type": "Feature", "properties": {"name": "OPEN FOR SEASON: New Roots Community Farm", "address": "670 Grand Concourse", "Borough": "Bronx"}, "geometry": {"type": "Point", "coordinates": [-73.92504, 40.82124]}}, {"type": "Feature", "properties": {"name": "79th St Greenmarket", "address": "Columbus Avenue and 79th Street", "Borough": "Manhattan"}, "geometry": {"type": "Point", "coordinates": [-73.97548, 40.78195]}}]}