{"type": "FeatureCollection", "features": [{"type": "Feature", "properties": {"name": "M'Finda Kalunga Garden", "address": "165 Forsyth St", "Borough": "Manhattan"}, "geometry": {"type": "Point", "coordinates": [-73.99181, 40.72107000000001]}}, {"type": "Feature", "properties": {"name": "127 Street & Malcolm X Food Scrap Drop Off Site", "address": "77 West 127th Street between Malcolm X Boulevard and 5th Ave", "Borough": "Manhattan"}, "geometry": {"type": "Point", "coordinates": [-73.94325, 40.80839]}}, {"type": "Feature", "properties": {"name": "Tribeca Greenmarket", "address": "Greenwich Street at Chambers Street,New York,NY", "Borough": "Manhattan"}, "geometry": {"type": "Point", "coordinates": [-74.01094, 40.71629]}}, {"type": "Feature", "properties": {"name": "Bronx Borough Hall Greenmarket", "address": "Grand Concourse and 161 St, Bronx, NY, 10451", "Borough": "Bronx"}, "geometry": {"type": "Point", "coordinates": [-73.9225, 40.82692]}}, {"type": "Feature", "properties": {"name": "Kelly Street Garden", "address": "924 Kelly Street", "Borough": "Bronx"}, "geometry": {"type": "Point", "coordinates": [-73.89568, 40.8204]}}, {"type": "Feature", "properties": {"name": "Bowling Green Greenmarket", "address": "Broadway at Battery Place,New York,NY, 10004", "Borough": "Manhattan"}, "geometry": {"type": "Point", "coordinates": [-74.01425, 40.70459]}}, {"type": "Feature", "properties": {"name": "Mary Mitchell Center", "address": "2007 Mapes Ave, Bronx 10460", "Borough": "Bronx"}, "geometry": {"type": "Point", "coordinates": [-73.88722, 40.84477]}}, {"type": "Feature", "properties": {"name": "Dag Hammarskjold Plaza Greenmarket", "address": "East 47 St at 2 Ave,New York,NY, 10017", "Borough": "Manhattan"}, "geometry": {"type": "Point", "coordinates": [-73.96988, 40.75299]}}, {"type": "Feature", "properties": {"name": "161st Street - Yankee Stadium", "address": "161st, River Ave - NE Corner", "Borough": "Bronx"}, "geometry": {"type": "Point", "coordinates": [-73.9257, 40.82805]}}, {"type": "Feature", "properties": {"name": "William B. Washington Memorial Garden", "address": "321 West 126th Street", "Borough": "Manhattan"}, "geometry": {"type": "Point", "coordinates": [-73.95052, 40.81164]}}, {"type": "Feature", "properties": {"name": "UCC Youth Farm", "address": "613 New Lots Avenue", "Borough": "Brooklyn"}, "geometry": {"type": "Point", "coordinates": [-73.88675, 40.66496]}}, {"type": "Feature", "properties": {"name": "57th Street Greenmarket", "address": "10th Avenue & West 57th Street", "Borough": "Manhattan"}, "geometry": {"type": "Point", "coordinates": [-73.98855, 40.76911]}}, {"type": "Feature", "properties": {"name": "JH Scraps", "address": "35th Ave & 69th Street, Jackson Heights, NY 11372", "Borough": "Queens"}, "geometry": {"type": "Point", "coordinates": [-73.89644, 40.74983]}}, {"type": "Feature", "properties": {"name": "Corona Greenmarket", "address": "Corona Plaza, Roosevelt Ave at 103 Street, Queens", "Borough": "Queens"}, "geometry": {"type": "Point", "coordinates": [-73.86261, 40.74972]}}, {"type": "Feature", "properties": {"name": "St. Augustine Food Pantry", "address": "1168 Franklin Ave", "Borough": "Bronx"}, "geometry": {"type": "Point", "coordinates": [-73.90343, 40.82935]}}, {"type": "Feature", "properties": {"name": "Uptown Grand Central Fresh Food Box", "address": "125th Street at Park Avenue, outside the Metro-North Station", "Borough": "Manhattan"}, "geometry": {"type": "Point", "coordinates": [-73.93913, 40.80514]}}, {"type": "Feature", "properties": {"name": "Poe Park Greenmarket", "address": "E. 192 St. btwn Grand Concourse and Valentine, Bronx, NY, 10468", "Borough": "Bronx"}, "geometry": {"type": "Point", "coordinates": [-73.89506999999998, 40.86411]}}, {"type": "Feature", "properties": {"name": "63rd Dr. M/R Commuter Drop-Off", "address": "96-14 Queens Blvd, Rego Park, NY 11374", "Borough": "Queens"}, "geometry": {"type": "Point", "coordinates": [-73.86165, 40.7296]}}, {"type": "Feature", "properties": {"name": "Mobilization for Change Community Garden", "address": "955 Columbus Ave", "Borough": "Manhattan"}, "geometry": {"type": "Point", "coordinates": [-73.9621, 40.79972]}}, {"type": "Feature", "properties": {"name": "St. James Compost", "address": "86-02 Broadway", "Borough": "Queens"}, "geometry": {"type": "Point", "coordinates": [-73.87774, 40.7384]}}, {"type": "Feature", "properties": {"name": "Smiling Hogshead Ranch*", "address": "25-30 Skillman Ave, Long Island City, NY 11101", "Borough": "Queens"}, "geometry": {"type": "Point", "coordinates": [-73.94285, 40.74344]}}, {"type": "Feature", "properties": {"name": "Fort Washington Greenmarket", "address": "168th Street at Fort Washington,New York,NY 10032", "Borough": "Manhattan"}, "geometry": {"type": "Point", "coordinates": [-73.94229, 40.84217]}}, {"type": "Feature", "properties": {"name": "Brook Ave", "address": "138th, Brook Ave - NW Corner", "Borough": "Bronx"}, "geometry": {"type": "Point", "coordinates": [-73.9193, 40.80766]}}, {"type": "Feature", "properties": {"name": "92nd Street Greenmarket", "address": "1st Ave between 92nd and 93rd St,New York,NY,10128", "Borough": "Manhattan"}, "geometry": {"type": "Point", "coordinates": [-73.94632, 40.78103]}}, {"type": "Feature", "properties": {"name": "Project H.O.P.E. Fresh Food Box", "address": "854 Hunts Point Ave", "Borough": "Bronx"}, "geometry": {"type": "Point", "coordinates": [-73.88864000000002, 40.81803]}}, {"type": "Feature", "properties": {"name": "Pink Houses Community Farm", "address": "1257 Loring Avenue", "Borough": "Brooklyn"}, "geometry": {"type": "Point", "coordinates": [-73.86553, 40.66809]}}, {"type": "Feature", "properties": {"name": "Edgemere Farm", "address": "385 Beach 45th St. Rockaway, NY 11691", "Borough": "Queens"}, "geometry": {"type": "Point", "coordinates": [-73.77654, 40.5954]}}, {"type": "Feature", "properties": {"name": "Hudson Blvd Park", "address": "5 Hudson Blvd East", "Borough": "Manhattan"}, "geometry": {"type": "Point", "coordinates": [-73.99972, 40.75559000000001]}}, {"type": "Feature", "properties": {"name": "Queens County Farm Museum", "address": "73-50 Little Neck Parkway", "Borough": "Queens"}, "geometry": {"type": "Point", "coordinates": [-73.721, 40.74841]}}, {"type": "Feature", "properties": {"name": "Fordham Plaza Greenmarket", "address": "E Fordham Rd btw Webster Ave & Third Ave - S", "Borough": "Bronx"}, "geometry": {"type": "Point", "coordinates": [-73.8908, 40.86115]}}, {"type": "Feature", "properties": {"name": "Inwood Greenmarket", "address": "Isham St at Cooper,New York,NY, 10034", "Borough": "Manhattan"}, "geometry": {"type": "Point", "coordinates": [-73.92033, 40.86901]}}, {"type": "Feature", "properties": {"name": "The Compost Collective", "address": "73-24 Yellowstone Blvd.", "Borough": "Queens"}, "geometry": {"type": "Point", "coordinates": [-73.85750999999998, 40.71741]}}, {"type": "Feature", "properties": {"name": "Tompkins Square Greenmarket", "address": "E 7th St & Avenue A, New York, NY 10009", "Borough": "Manhattan"}, "geometry": {"type": "Point", "coordinates": [-73.98354, 40.72606]}}, {"type": "Feature", "properties": {"name": "Commuter Composting at Briarwood E/F", "address": "Briarwood E/F Subway Station Entrance (North side of Queens Boulevard)", "Borough": "Queens"}, "geometry": {"type": "Point", "coordinates": [-73.81903, 40.70968]}}, {"type": "Feature", "properties": {"name": "Abingdon Square Greenmarket", "address": "West 12 Street and 8 Avenue,New York,NY,10014", "Borough": "Manhattan"}, "geometry": {"type": "Point", "coordinates": [-74.00480999999998, 40.73755]}}, {"type": "Feature", "properties": {"name": "Bronxworks", "address": "1130 Grand Concourse", "Borough": "Bronx"}, "geometry": {"type": "Point", "coordinates": [-73.91877, 40.83264000000001]}}, {"type": "Feature", "properties": {"name": "Bayview Houses", "address": "5955 Shore Parkway", "Borough": "Brooklyn"}, "geometry": {"type": "Point", "coordinates": [-73.88596, 40.63366]}}, {"type": "Feature", "properties": {"name": "Meg's Community Garden @ Dewitt Clinton High School Campus", "address": "100 West Mosholu Parkway", "Borough": "Bronx"}, "geometry": {"type": "Point", "coordinates": [-73.88758, 40.88123]}}, {"type": "Feature", "properties": {"name": "149th St -- Grand Concourse", "address": "Grand Concourse, 149th Street - SE Corner", "Borough": "Bronx"}, "geometry": {"type": "Point", "coordinates": [-73.9272, 40.81844]}}, {"type": "Feature", "properties": {"name": "Flushing Greenmarket", "address": "Maple Playground, Maple Avenue and Kissena Boulevard, Flushing", "Borough": "Queens"}, "geometry": {"type": "Point", "coordinates": [-73.82584, 40.75625]}}, {"type": "Feature", "properties": {"name": "Harlem Grown", "address": "118 W 134th St", "Borough": "Manhattan"}, "geometry": {"type": "Point", "coordinates": [-73.94283, 40.81428]}}, {"type": "Feature", "properties": {"name": "Learn it, Grow it, Eat it Youthmarket", "address": "McKinley Sq. at 169th St. & Boston Road", "Borough": "Bronx"}, "geometry": {"type": "Point", "coordinates": [-73.90041, 40.8312]}}]}